[
  {
    "name": "3512 Vision Common",
    "address": "3512 Vision Common",
    "city": "Fremont",
    "rating": 0,
    "reviews": 0,
    "phone": null,
    "transit": "BART",
    "lat": 37.498889,
    "lng": -121.944586,
    "place_id": "",
    "website": null,
    "price_1br": null
  },
  {
    "name": "3692 Intelligence Common",
    "address": "3692 Intelligence Common",
    "city": "Fremont",
    "rating": 0,
    "reviews": 0,
    "phone": null,
    "transit": "BART",
    "lat": 37.499207,
    "lng": -121.945761,
    "place_id": "",
    "website": null,
    "price_1br": null
  },
  {
    "name": "3693 Vision common",
    "address": "3693 Vision Common",
    "city": "Fremont",
    "rating": 0,
    "reviews": 0,
    "phone": null,
    "transit": "BART",
    "lat": 37.498933,
    "lng": -121.94558,
    "place_id": "",
    "website": null,
    "price_1br": null
  },
  {
    "name": "3698 Vision Common",
    "address": "3689 Vision Common",
    "city": "Fremont",
    "rating": 0,
    "reviews": 0,
    "phone": null,
    "transit": "BART",
    "lat": 37.498467,
    "lng": -121.94594,
    "place_id": "",
    "website": null,
    "price_1br": null
  },
  {
    "name": "3712 Intelligence Common",
    "address": "3712 Intelligence Common",
    "city": "Fremont",
    "rating": 0,
    "reviews": 0,
    "phone": null,
    "transit": "BART",
    "lat": 37.498979,
    "lng": -121.946291,
    "place_id": "",
    "website": null,
    "price_1br": null
  },
  {
    "name": "3713 Vision Common",
    "address": "3713 Vision Common",
    "city": "Fremont",
    "rating": 0,
    "reviews": 0,
    "phone": null,
    "transit": "BART",
    "lat": 37.498757,
    "lng": -121.94613,
    "place_id": "",
    "website": null,
    "price_1br": null
  },
  {
    "name": "3873 Quantum Drive",
    "address": "3873 Quantum Drive",
    "city": "Fremont",
    "rating": 0,
    "reviews": 0,
    "phone": null,
    "transit": "BART",
    "lat": 37.498046,
    "lng": -121.947014,
    "place_id": "",
    "website": null,
    "price_1br": null
  },
  {
    "name": "45188 Ambition St",
    "address": "45188 Ambition Street",
    "city": "Fremont",
    "rating": 0,
    "reviews": 0,
    "phone": null,
    "transit": "BART",
    "lat": 37.498885,
    "lng": -121.946764,
    "place_id": "",
    "website": null,
    "price_1br": null
  },
  {
    "name": "Apartments",
    "address": "",
    "city": "Fremont",
    "rating": 0,
    "reviews": 0,
    "phone": null,
    "transit": "BART",
    "lat": 37.562235,
    "lng": -121.963414,
    "place_id": "",
    "website": null,
    "price_1br": null
  },
  {
    "name": "Archstone Fremont Center",
    "address": "39410 Civic Center Dr",
    "city": "Fremont",
    "rating": 4.1,
    "reviews": 184,
    "phone": "+1 510-792-1299",
    "transit": "BART",
    "lat": 37.5538,
    "lng": -121.9734,
    "place_id": "ChIJtcQF-Y3Aj4ARaWF2FI4raZE",
    "website": null,
    "price_1br": null
  },
  {
    "name": "Avalon Fremont",
    "address": "39939 Stevenson Common",
    "city": "Fremont",
    "rating": 4.2,
    "reviews": 356,
    "phone": "+1 510-279-0325",
    "transit": "BART",
    "lat": 37.5432,
    "lng": -121.972,
    "place_id": "ChIJv5q-m7_Aj4ARSCowWePSYlU",
    "website": null,
    "price_1br": null
  },
  {
    "name": "Aya Apartments",
    "address": "45060 Synergy Street",
    "city": "Fremont",
    "rating": 0,
    "reviews": 0,
    "phone": null,
    "transit": "BART",
    "lat": 37.50214,
    "lng": -121.942169,
    "place_id": "",
    "website": null,
    "price_1br": null
  },
  {
    "name": "Coronado Apartments",
    "address": "3777 Mowry Ave",
    "city": "Fremont",
    "rating": 4.2,
    "reviews": 47,
    "phone": "+1 541-623-2572",
    "transit": "BART",
    "lat": 37.5498,
    "lng": -121.9882,
    "place_id": "ChIJ-a-GrZzAj4AR3l4fCnnWSe0",
    "website": null,
    "price_1br": null
  },
  {
    "name": "Creekside Village",
    "address": "2999 Sequoia Terrace",
    "city": "Fremont",
    "rating": 4.6,
    "reviews": 361,
    "phone": "+1 844-795-9756",
    "transit": "BART",
    "lat": 37.5649,
    "lng": -122.0035,
    "place_id": "ChIJp2hhjY-_j4ARmSVAvSdLZV8",
    "website": null,
    "price_1br": null
  },
  {
    "name": "Embark Apartment",
    "address": "44758 Old Warm Springs Boulevard",
    "city": "Fremont",
    "rating": 0,
    "reviews": 0,
    "phone": null,
    "transit": "BART",
    "lat": 37.505097,
    "lng": -121.942896,
    "place_id": "",
    "website": null,
    "price_1br": null
  },
  {
    "name": "Fremont Arms",
    "address": "37811 Fremont Blvd",
    "city": "Fremont",
    "rating": 4.3,
    "reviews": 58,
    "phone": "+1 510-797-4520",
    "transit": "BART",
    "lat": 37.5547,
    "lng": -122.002,
    "place_id": "ChIJ--RmZXi_j4AR8g_vXRKYYpM",
    "website": null,
    "price_1br": null
  },
  {
    "name": "Geo Apartments",
    "address": "44728 Old Warm Springs Boulevard",
    "city": "Fremont",
    "rating": 0,
    "reviews": 0,
    "phone": null,
    "transit": "BART",
    "lat": 37.505465,
    "lng": -121.94398,
    "place_id": "",
    "website": null,
    "price_1br": null
  },
  {
    "name": "Glenmoor Green",
    "address": "38850 Farwell Dr",
    "city": "Fremont",
    "rating": 4.8,
    "reviews": 94,
    "phone": "+1 510-574-8374",
    "transit": "BART",
    "lat": 37.5348,
    "lng": -122.0018,
    "place_id": "ChIJI3j6EV2_j4AR55p1TigTh0I",
    "website": null,
    "price_1br": null
  },
  {
    "name": "Granite Ridge Apartments",
    "address": "",
    "city": "Fremont",
    "rating": 0,
    "reviews": 0,
    "phone": null,
    "transit": "BART",
    "lat": 37.563215,
    "lng": -122.001828,
    "place_id": "",
    "website": null,
    "price_1br": null
  },
  {
    "name": "Koda on Fremont",
    "address": "39867 Fremont Blvd",
    "city": "Fremont",
    "rating": 4.3,
    "reviews": 106,
    "phone": "+1 844-763-4912",
    "transit": "BART",
    "lat": 37.5415,
    "lng": -121.9763,
    "place_id": "ChIJQQux-AzBj4ARuW5cpL_jeHQ",
    "website": null,
    "price_1br": null
  },
  {
    "name": "La Salvador Apartments",
    "address": "37235 Niles Boulevard",
    "city": "Fremont",
    "rating": 0,
    "reviews": 0,
    "phone": null,
    "transit": "BART",
    "lat": 37.577281,
    "lng": -121.982077,
    "place_id": "",
    "website": null,
    "price_1br": null
  },
  {
    "name": "Leya Apartments",
    "address": "3301 Innovation Way",
    "city": "Fremont",
    "rating": 0,
    "reviews": 0,
    "phone": null,
    "transit": "BART",
    "lat": 37.501327,
    "lng": -121.94405,
    "place_id": "",
    "website": null,
    "price_1br": null
  },
  {
    "name": "Locale East",
    "address": "",
    "city": "Fremont",
    "rating": 0,
    "reviews": 0,
    "phone": null,
    "transit": "BART",
    "lat": 37.549535,
    "lng": -121.984643,
    "place_id": "",
    "website": null,
    "price_1br": null
  },
  {
    "name": "Locale West",
    "address": "",
    "city": "Fremont",
    "rating": 0,
    "reviews": 0,
    "phone": null,
    "transit": "BART",
    "lat": 37.548851,
    "lng": -121.985171,
    "place_id": "",
    "website": null,
    "price_1br": null
  },
  {
    "name": "Northridge",
    "address": "",
    "city": "Fremont",
    "rating": 0,
    "reviews": 0,
    "phone": null,
    "transit": "BART",
    "lat": 37.562436,
    "lng": -121.964054,
    "place_id": "",
    "website": null,
    "price_1br": null
  },
  {
    "name": "Parkway Towers and Townhouses",
    "address": "3909 Stevenson Boulevard",
    "city": "Fremont",
    "rating": 0,
    "reviews": 0,
    "phone": null,
    "transit": "BART",
    "lat": 37.542085,
    "lng": -121.973303,
    "place_id": "",
    "website": null,
    "price_1br": null
  },
  {
    "name": "Redwood Lodge",
    "address": "40767 Fremont Boulevard",
    "city": "Fremont",
    "rating": 0,
    "reviews": 0,
    "phone": null,
    "transit": "BART",
    "lat": 37.534573,
    "lng": -121.964203,
    "place_id": "",
    "website": null,
    "price_1br": null
  },
  {
    "name": "Sequoia Manor",
    "address": "40789 Fremont Boulevard",
    "city": "Fremont",
    "rating": 0,
    "reviews": 0,
    "phone": null,
    "transit": "BART",
    "lat": 37.534408,
    "lng": -121.963273,
    "place_id": "",
    "website": null,
    "price_1br": null
  },
  {
    "name": "Southridge",
    "address": "",
    "city": "Fremont",
    "rating": 0,
    "reviews": 0,
    "phone": null,
    "transit": "BART",
    "lat": 37.561819,
    "lng": -121.963328,
    "place_id": "",
    "website": null,
    "price_1br": null
  },
  {
    "name": "The Presidio",
    "address": "2000 Walnut Ave",
    "city": "Fremont",
    "rating": 3.6,
    "reviews": 260,
    "phone": "+1 844-556-1672",
    "transit": "BART",
    "lat": 37.5576,
    "lng": -121.9719,
    "place_id": "ChIJzYJ3i4zAj4AR05AVnFFzcho",
    "website": null,
    "price_1br": null
  },
  {
    "name": "The Tolman",
    "address": "39176 Fremont Boulevard",
    "city": "Fremont",
    "rating": 0,
    "reviews": 0,
    "phone": null,
    "transit": "BART",
    "lat": 37.54791,
    "lng": -121.985372,
    "place_id": "",
    "website": "https://thetolmanapts.com/",
    "price_1br": null
  },
  {
    "name": "Vue Fremont",
    "address": "37200 Paseo Padre Pkwy",
    "city": "Fremont",
    "rating": 4.2,
    "reviews": 63,
    "phone": "+1 510-402-2506",
    "transit": "BART",
    "lat": 37.5642,
    "lng": -122.0034,
    "place_id": "ChIJ9Y9WQYW_j4AR4hkftBW1iaY",
    "website": null,
    "price_1br": null
  },
  {
    "name": "Westridge",
    "address": "",
    "city": "Fremont",
    "rating": 0,
    "reviews": 0,
    "phone": null,
    "transit": "BART",
    "lat": 37.561591,
    "lng": -121.964045,
    "place_id": "",
    "website": null,
    "price_1br": null
  },
  {
    "name": "eaves Fremont",
    "address": "231 Woodcreek Common",
    "city": "Fremont",
    "rating": 4.6,
    "reviews": 376,
    "phone": "+1 510-298-1834",
    "transit": "BART",
    "lat": 37.4936,
    "lng": -121.9274,
    "place_id": "ChIJH9lNBV3Gj4ARaiQ3deDS0Og",
    "website": null,
    "price_1br": null
  },
  {
    "name": "27601 1-2-3",
    "address": "27601 Tyrrell Avenue",
    "city": "Hayward",
    "rating": 0,
    "reviews": 0,
    "phone": null,
    "transit": "BART",
    "lat": 37.633684,
    "lng": -122.072201,
    "place_id": "",
    "website": null,
    "price_1br": null
  },
  {
    "name": "971 1-2",
    "address": "971 Glad Tidings Way",
    "city": "Hayward",
    "rating": 0,
    "reviews": 0,
    "phone": null,
    "transit": "BART",
    "lat": 37.633567,
    "lng": -122.072347,
    "place_id": "",
    "website": null,
    "price_1br": null
  },
  {
    "name": "971 3-4-5",
    "address": "971 Glad Tidings Way",
    "city": "Hayward",
    "rating": 0,
    "reviews": 0,
    "phone": null,
    "transit": "BART",
    "lat": 37.633745,
    "lng": -122.072492,
    "place_id": "",
    "website": null,
    "price_1br": null
  },
  {
    "name": "971 6-7",
    "address": "971 Glad Tidings Way",
    "city": "Hayward",
    "rating": 0,
    "reviews": 0,
    "phone": null,
    "transit": "BART",
    "lat": 37.633545,
    "lng": -122.072585,
    "place_id": "",
    "website": null,
    "price_1br": null
  },
  {
    "name": "977 1-2",
    "address": "977 Glad Tidings Way",
    "city": "Hayward",
    "rating": 0,
    "reviews": 0,
    "phone": null,
    "transit": "BART",
    "lat": 37.633537,
    "lng": -122.072742,
    "place_id": "",
    "website": null,
    "price_1br": null
  },
  {
    "name": "977 3-4-5",
    "address": "977 Glad Tidings Way",
    "city": "Hayward",
    "rating": 0,
    "reviews": 0,
    "phone": null,
    "transit": "BART",
    "lat": 37.633711,
    "lng": -122.072893,
    "place_id": "",
    "website": null,
    "price_1br": null
  },
  {
    "name": "977 6-7",
    "address": "977 Glad Tidings Way",
    "city": "Hayward",
    "rating": 0,
    "reviews": 0,
    "phone": null,
    "transit": "BART",
    "lat": 37.633516,
    "lng": -122.072986,
    "place_id": "",
    "website": null,
    "price_1br": null
  },
  {
    "name": "983 1-2",
    "address": "983 Glad Tidings Way",
    "city": "Hayward",
    "rating": 0,
    "reviews": 0,
    "phone": null,
    "transit": "BART",
    "lat": 37.633497,
    "lng": -122.073138,
    "place_id": "",
    "website": null,
    "price_1br": null
  },
  {
    "name": "983 3-4",
    "address": "983 Glad Tidings Way",
    "city": "Hayward",
    "rating": 0,
    "reviews": 0,
    "phone": null,
    "transit": "BART",
    "lat": 37.633697,
    "lng": -122.073161,
    "place_id": "",
    "website": null,
    "price_1br": null
  },
  {
    "name": "983 5-6-7",
    "address": "983 Glad Tidings Way",
    "city": "Hayward",
    "rating": 0,
    "reviews": 0,
    "phone": null,
    "transit": "BART",
    "lat": 37.633672,
    "lng": -122.073457,
    "place_id": "",
    "website": null,
    "price_1br": null
  },
  {
    "name": "983 8-9-10",
    "address": "983 Glad Tidings Way",
    "city": "Hayward",
    "rating": 0,
    "reviews": 0,
    "phone": null,
    "transit": "BART",
    "lat": 37.633436,
    "lng": -122.073428,
    "place_id": "",
    "website": null,
    "price_1br": null
  },
  {
    "name": "987 1-2",
    "address": "987 Glad Tidings Way",
    "city": "Hayward",
    "rating": 0,
    "reviews": 0,
    "phone": null,
    "transit": "BART",
    "lat": 37.633454,
    "lng": -122.073695,
    "place_id": "",
    "website": null,
    "price_1br": null
  },
  {
    "name": "B Street Apartments",
    "address": "22650 Main St",
    "city": "Hayward",
    "rating": 4.4,
    "reviews": 10,
    "phone": "+1 415-237-6240",
    "transit": "BART",
    "lat": 37.6725,
    "lng": -122.082,
    "place_id": "ChIJJ0bHXtiTj4ARcgg9wliYaWw",
    "website": null,
    "price_1br": null
  },
  {
    "name": "Bart Plaza Apartments",
    "address": "29360 Dixon St",
    "city": "Hayward",
    "rating": 4.4,
    "reviews": 9,
    "phone": "+1 510-538-2285",
    "transit": "BART",
    "lat": 37.6309,
    "lng": -122.0518,
    "place_id": "ChIJYWisnESUj4AR9S3wkJWQwVc",
    "website": null,
    "price_1br": null
  },
  {
    "name": "Bart Springs Apartments",
    "address": "29033 Dixon St",
    "city": "Hayward",
    "rating": 4.1,
    "reviews": 8,
    "phone": "+1 510-537-1957",
    "transit": "BART",
    "lat": 37.6326,
    "lng": -122.0553,
    "place_id": "ChIJ2ZeDMkKUj4ARj4yJ_MWrLdk",
    "website": null,
    "price_1br": null
  },
  {
    "name": "Bentley Place",
    "address": "22525 3rd St",
    "city": "Hayward",
    "rating": 4.8,
    "reviews": 4,
    "phone": "+1 510-390-7321",
    "transit": "BART",
    "lat": 37.6772,
    "lng": -122.0787,
    "place_id": "ChIJdzQCN9eTj4ARvEhkBSMPsKE",
    "website": null,
    "price_1br": null
  },
  {
    "name": "Downtown Hayward Senior Apartments",
    "address": "808 A Street",
    "city": "Hayward",
    "rating": 0,
    "reviews": 0,
    "phone": null,
    "transit": "BART",
    "lat": 37.672865,
    "lng": -122.086154,
    "place_id": "",
    "website": null,
    "price_1br": null
  },
  {
    "name": "Greenleaf Apartments 1-8",
    "address": "27495 Manon Avenue",
    "city": "Hayward",
    "rating": 0,
    "reviews": 0,
    "phone": null,
    "transit": "BART",
    "lat": 37.636132,
    "lng": -122.069776,
    "place_id": "",
    "website": null,
    "price_1br": null
  },
  {
    "name": "Greenleaf Apartments 17-23",
    "address": "27495 Manon Avenue",
    "city": "Hayward",
    "rating": 0,
    "reviews": 0,
    "phone": null,
    "transit": "BART",
    "lat": 37.635802,
    "lng": -122.070414,
    "place_id": "",
    "website": null,
    "price_1br": null
  },
  {
    "name": "Greenleaf Apartments 9-16",
    "address": "27495 Manon Avenue",
    "city": "Hayward",
    "rating": 0,
    "reviews": 0,
    "phone": null,
    "transit": "BART",
    "lat": 37.635886,
    "lng": -122.070509,
    "place_id": "",
    "website": null,
    "price_1br": null
  },
  {
    "name": "Legacy at Hayward",
    "address": "28168 Mission Blvd",
    "city": "Hayward",
    "rating": 4.3,
    "reviews": 68,
    "phone": "+1 833-918-3530",
    "transit": "BART",
    "lat": 37.6383,
    "lng": -122.0558,
    "place_id": "ChIJoyEvHpCVj4ARlnZGasfcZmM",
    "website": null,
    "price_1br": null
  },
  {
    "name": "Lincoln Landing Building A",
    "address": "22335 Foothill Boulevard",
    "city": "Hayward",
    "rating": 0,
    "reviews": 0,
    "phone": null,
    "transit": "BART",
    "lat": 37.677483,
    "lng": -122.084426,
    "place_id": "",
    "website": null,
    "price_1br": null
  },
  {
    "name": "Lincoln Landing Building B",
    "address": "22271 Foothill Boulevard",
    "city": "Hayward",
    "rating": 0,
    "reviews": 0,
    "phone": null,
    "transit": "BART",
    "lat": 37.679029,
    "lng": -122.085748,
    "place_id": "",
    "website": "https://www.lincolnlandingapartments.com",
    "price_1br": null
  },
  {
    "name": "Solstice Apartments 1-8",
    "address": "27467 Manon Avenue",
    "city": "Hayward",
    "rating": 0,
    "reviews": 0,
    "phone": null,
    "transit": "BART",
    "lat": 37.636517,
    "lng": -122.070068,
    "place_id": "",
    "website": null,
    "price_1br": null
  },
  {
    "name": "Solstice Apartments 17-24",
    "address": "27467 Manon Avenue",
    "city": "Hayward",
    "rating": 0,
    "reviews": 0,
    "phone": null,
    "transit": "BART",
    "lat": 37.636285,
    "lng": -122.070495,
    "place_id": "",
    "website": null,
    "price_1br": null
  },
  {
    "name": "Solstice Apartments 25-32",
    "address": "27467 Manon Avenue",
    "city": "Hayward",
    "rating": 0,
    "reviews": 0,
    "phone": null,
    "transit": "BART",
    "lat": 37.636204,
    "lng": -122.0707,
    "place_id": "",
    "website": null,
    "price_1br": null
  },
  {
    "name": "Solstice Apartments 33-36",
    "address": "27467 Manon Avenue",
    "city": "Hayward",
    "rating": 0,
    "reviews": 0,
    "phone": null,
    "transit": "BART",
    "lat": 37.636098,
    "lng": -122.070855,
    "place_id": "",
    "website": null,
    "price_1br": null
  },
  {
    "name": "Solstice Apartments 9-16",
    "address": "27467 Manon Avenue",
    "city": "Hayward",
    "rating": 0,
    "reviews": 0,
    "phone": null,
    "transit": "BART",
    "lat": 37.636384,
    "lng": -122.070306,
    "place_id": "",
    "website": null,
    "price_1br": null
  },
  {
    "name": "Summerwood",
    "address": "21701 Foothill Blvd",
    "city": "Hayward",
    "rating": 3.7,
    "reviews": 55,
    "phone": "+1 833-202-9993",
    "transit": "BART",
    "lat": 37.6815,
    "lng": -122.0892,
    "place_id": "ChIJAzM9WX-Rj4ARsq5NCSk_IgU",
    "website": null,
    "price_1br": null
  },
  {
    "name": "The Mix at SoHay",
    "address": "29213 Mission Blvd",
    "city": "Hayward",
    "rating": 4.3,
    "reviews": 29,
    "phone": "+1 510-974-7854",
    "transit": "BART",
    "lat": 37.6325,
    "lng": -122.0507,
    "place_id": "ChIJF9eite-Vj4ARs23D3jX93iI",
    "website": null,
    "price_1br": null
  },
  {
    "name": "Atherton Park Forest",
    "address": "1670 El Camino Real",
    "city": "Menlo Park",
    "rating": 4.5,
    "reviews": 11,
    "phone": "+1 650-325-2001",
    "transit": "Caltrain",
    "lat": 37.4588,
    "lng": -122.1921,
    "place_id": "ChIJRbYkqqCkj4AR_jag5KijL2E",
    "website": null,
    "price_1br": null
  },
  {
    "name": "ROEN Menlo Park",
    "address": "3645 Haven Ave",
    "city": "Menlo Park",
    "rating": 3.5,
    "reviews": 119,
    "phone": "+1 650-675-5448",
    "transit": "Caltrain",
    "lat": 37.4864,
    "lng": -122.1826,
    "place_id": "ChIJmzL5OTGjj4AR8tSHlTNMI8I",
    "website": null,
    "price_1br": null
  },
  {
    "name": "Springline Residences",
    "address": "550 Oak Grove Ave",
    "city": "Menlo Park",
    "rating": 4.8,
    "reviews": 77,
    "phone": "+1 650-582-1380",
    "transit": "Caltrain",
    "lat": 37.4554,
    "lng": -122.1848,
    "place_id": "ChIJTyb7ATmlj4ARhVg2lUK-J7c",
    "website": null,
    "price_1br": null
  },
  {
    "name": "Vasara",
    "address": "110 Constitution Dr",
    "city": "Menlo Park",
    "rating": 4.5,
    "reviews": 160,
    "phone": "+1 415-991-4190",
    "transit": "Caltrain",
    "lat": 37.4845,
    "lng": -122.1782,
    "place_id": "ChIJJUkIPiOjj4ARoJjuJaY-dIw",
    "website": null,
    "price_1br": null
  },
  {
    "name": "555 Apartment Homes",
    "address": "549 S Park Victoria Dr",
    "city": "Milpitas",
    "rating": 4.5,
    "reviews": 244,
    "phone": "+1 209-703-4025",
    "transit": "BART",
    "lat": 37.4273,
    "lng": -121.8822,
    "place_id": "ChIJR2nkO8POj4ARjNNDyydpdWQ",
    "website": null,
    "price_1br": null
  },
  {
    "name": "Capitol 650",
    "address": "650 E Capitol Ave",
    "city": "Milpitas",
    "rating": 3.8,
    "reviews": 267,
    "phone": "+1 844-414-1353",
    "transit": "BART",
    "lat": 37.409,
    "lng": -121.8927,
    "place_id": "ChIJzcpzX7DOj4ARNjOpDUPOHYg",
    "website": null,
    "price_1br": null
  },
  {
    "name": "Cerano Apartments",
    "address": "Murphy Ranch Road",
    "city": "Milpitas",
    "rating": 0,
    "reviews": 0,
    "phone": null,
    "transit": "VTA",
    "lat": 37.417825,
    "lng": -121.92834,
    "place_id": "",
    "website": null,
    "price_1br": null
  },
  {
    "name": "Eleanor",
    "address": "312 Gates Dr",
    "city": "Milpitas",
    "rating": 3.8,
    "reviews": 391,
    "phone": "+1 844-997-4491",
    "transit": "BART",
    "lat": 37.4094,
    "lng": -121.8965,
    "place_id": "ChIJ8W9ZPlPPj4ARHWsxqCyiMpM",
    "website": null,
    "price_1br": null
  },
  {
    "name": "Essex Apex Apartments",
    "address": "",
    "city": "Milpitas",
    "rating": 0,
    "reviews": 0,
    "phone": null,
    "transit": "BART/VTA",
    "lat": 37.414235,
    "lng": -121.903715,
    "place_id": "",
    "website": null,
    "price_1br": null
  },
  {
    "name": "Gideon",
    "address": "",
    "city": "Milpitas",
    "rating": 0,
    "reviews": 0,
    "phone": null,
    "transit": "BART/VTA",
    "lat": 37.410635,
    "lng": -121.898966,
    "place_id": "",
    "website": "https://livethefields.com/gideon/",
    "price_1br": null
  },
  {
    "name": "Gideon at The Fields",
    "address": "150 Market St",
    "city": "Milpitas",
    "rating": 4.8,
    "reviews": 100,
    "phone": "+1 408-837-7991",
    "transit": "BART",
    "lat": 37.4108,
    "lng": -121.8994,
    "place_id": "ChIJ3UrlrtXPj4ARybp6b0bGlho",
    "website": null,
    "price_1br": null
  },
  {
    "name": "Graham at The Fields",
    "address": "1455 McCandless Dr",
    "city": "Milpitas",
    "rating": 4.6,
    "reviews": 159,
    "phone": "+1 408-539-5684",
    "transit": "BART",
    "lat": 37.4107,
    "lng": -121.8999,
    "place_id": "ChIJRwgNxhjPj4ARVki4lRGOdnM",
    "website": null,
    "price_1br": null
  },
  {
    "name": "ILARA Apartments",
    "address": "1201 S Main St",
    "city": "Milpitas",
    "rating": 3.6,
    "reviews": 201,
    "phone": "+1 408-935-9300",
    "transit": "BART",
    "lat": 37.4123,
    "lng": -121.9023,
    "place_id": "ChIJ7U1pqErJj4AR1oHytisRxLY",
    "website": null,
    "price_1br": null
  },
  {
    "name": "Lantana",
    "address": "720 Montague Expressway",
    "city": "Milpitas",
    "rating": 0,
    "reviews": 0,
    "phone": null,
    "transit": "BART/VTA",
    "lat": 37.410983,
    "lng": -121.888872,
    "place_id": "",
    "website": null,
    "price_1br": null
  },
  {
    "name": "Lantana at Milpitas Station",
    "address": "1675 S Milpitas Blvd",
    "city": "Milpitas",
    "rating": 4.7,
    "reviews": 213,
    "phone": "+1 844-208-6785",
    "transit": "BART",
    "lat": 37.4105,
    "lng": -121.8887,
    "place_id": "ChIJQ39f8S3Pj4ARaTZp4nE8bTM",
    "website": null,
    "price_1br": null
  },
  {
    "name": "Mill Creek Apartments",
    "address": "440 Dixon Landing Rd",
    "city": "Milpitas",
    "rating": 4.2,
    "reviews": 470,
    "phone": "+1 408-946-2955",
    "transit": "BART",
    "lat": 37.4543,
    "lng": -121.9189,
    "place_id": "ChIJUVqzULvIj4ARjq_RfhRJXcs",
    "website": null,
    "price_1br": null
  },
  {
    "name": "Milpa Village Townhomes",
    "address": "260 S Main St",
    "city": "Milpitas",
    "rating": 4.5,
    "reviews": 16,
    "phone": "+1 408-655-8219",
    "transit": "BART",
    "lat": 37.4269,
    "lng": -121.9057,
    "place_id": "ChIJq6qWlivJj4ARv4LIdSHJl1g",
    "website": null,
    "price_1br": null
  },
  {
    "name": "Turing at The Fields",
    "address": "1355 McCandless Dr",
    "city": "Milpitas",
    "rating": 4.0,
    "reviews": 245,
    "phone": "+1 408-692-2876",
    "transit": "BART",
    "lat": 37.4117,
    "lng": -121.8998,
    "place_id": "ChIJm_XUoLXOj4ARS5vood7y_ZA",
    "website": null,
    "price_1br": null
  },
  {
    "name": "100 Moffett",
    "address": "100 Moffett Blvd",
    "city": "Mountain View",
    "rating": 4.2,
    "reviews": 171,
    "phone": "+1 650-376-8928",
    "transit": "Caltrain",
    "lat": 37.3962,
    "lng": -122.0778,
    "place_id": "ChIJUdCocTa3j4ARbkM5oF4OCVg",
    "website": null,
    "price_1br": null
  },
  {
    "name": "248 Pamela",
    "address": "248 Pamela Drive",
    "city": "Mountain View",
    "rating": 0,
    "reviews": 0,
    "phone": null,
    "transit": "Caltrain",
    "lat": 37.380431,
    "lng": -122.07609,
    "place_id": "",
    "website": "https://www.248pamela.com/",
    "price_1br": null
  },
  {
    "name": "599 Castro",
    "address": "560 Hope St",
    "city": "Mountain View",
    "rating": 4.5,
    "reviews": 24,
    "phone": "+1 844-346-1361",
    "transit": "Caltrain",
    "lat": 37.3886,
    "lng": -122.081,
    "place_id": "ChIJvxRMW2O3j4ARQQwK03m0gN4",
    "website": null,
    "price_1br": null
  },
  {
    "name": "A Building",
    "address": "",
    "city": "Mountain View",
    "rating": 0,
    "reviews": 0,
    "phone": null,
    "transit": "Caltrain",
    "lat": 37.404195,
    "lng": -122.102769,
    "place_id": "",
    "website": null,
    "price_1br": null
  },
  {
    "name": "Anton Ladera",
    "address": "398 Ortega Avenue",
    "city": "Mountain View",
    "rating": 0,
    "reviews": 0,
    "phone": null,
    "transit": "Caltrain",
    "lat": 37.400859,
    "lng": -122.104922,
    "place_id": "",
    "website": "https://www.antonladera.com/",
    "price_1br": null
  },
  {
    "name": "Atrium Court Apartments",
    "address": "1990 Latham Street",
    "city": "Mountain View",
    "rating": 0,
    "reviews": 0,
    "phone": null,
    "transit": "Caltrain",
    "lat": 37.396224,
    "lng": -122.098268,
    "place_id": "",
    "website": null,
    "price_1br": null
  },
  {
    "name": "Avalon",
    "address": "1911 California Street",
    "city": "Mountain View",
    "rating": 0,
    "reviews": 0,
    "phone": null,
    "transit": "Caltrain",
    "lat": 37.396678,
    "lng": -122.094739,
    "place_id": "",
    "website": null,
    "price_1br": null
  },
  {
    "name": "Avalon Mountain View",
    "address": "1600 Villa St",
    "city": "Mountain View",
    "rating": 4.7,
    "reviews": 233,
    "phone": "+1 650-528-2128",
    "transit": "Caltrain",
    "lat": 37.3976,
    "lng": -122.0866,
    "place_id": "ChIJfYitT7Swj4ARqlGv4vl-YYc",
    "website": null,
    "price_1br": null
  },
  {
    "name": "Avalon Towers",
    "address": "2400 W El Camino Real",
    "city": "Mountain View",
    "rating": 4.6,
    "reviews": 217,
    "phone": "+1 650-528-2130",
    "transit": "Caltrain",
    "lat": 37.3992,
    "lng": -122.1071,
    "place_id": "ChIJm6QDA5iwj4ARCZYf8k6JiOc",
    "website": null,
    "price_1br": null
  },
  {
    "name": "Avant",
    "address": "4041 El Camino Way",
    "city": "Mountain View",
    "rating": 0,
    "reviews": 0,
    "phone": null,
    "transit": "Caltrain",
    "lat": 37.415812,
    "lng": -122.127,
    "place_id": "",
    "website": null,
    "price_1br": null
  },
  {
    "name": "Avelle Apartments",
    "address": "",
    "city": "Mountain View",
    "rating": 0,
    "reviews": 0,
    "phone": null,
    "transit": "Caltrain",
    "lat": 37.410087,
    "lng": -122.077337,
    "place_id": "",
    "website": "https://liveavelle.com/",
    "price_1br": null
  },
  {
    "name": "Bel Aire Apartments",
    "address": "1941 California Street",
    "city": "Mountain View",
    "rating": 0,
    "reviews": 0,
    "phone": null,
    "transit": "Caltrain",
    "lat": 37.397134,
    "lng": -122.096258,
    "place_id": "",
    "website": null,
    "price_1br": null
  },
  {
    "name": "California Oaks",
    "address": "2005 California Street",
    "city": "Mountain View",
    "rating": 0,
    "reviews": 0,
    "phone": null,
    "transit": "Caltrain",
    "lat": 37.397387,
    "lng": -122.097333,
    "place_id": "",
    "website": null,
    "price_1br": null
  },
  {
    "name": "Caltega Apartments",
    "address": "2310 California Street",
    "city": "Mountain View",
    "rating": 0,
    "reviews": 0,
    "phone": null,
    "transit": "Caltrain",
    "lat": 37.401719,
    "lng": -122.104245,
    "place_id": "",
    "website": null,
    "price_1br": null
  },
  {
    "name": "Camino Palms Apartments",
    "address": "657 Escuela Avenue",
    "city": "Mountain View",
    "rating": 0,
    "reviews": 0,
    "phone": null,
    "transit": "Caltrain",
    "lat": 37.393471,
    "lng": -122.095445,
    "place_id": "",
    "website": null,
    "price_1br": null
  },
  {
    "name": "Case Del Rey",
    "address": "2035 California Street",
    "city": "Mountain View",
    "rating": 0,
    "reviews": 0,
    "phone": null,
    "transit": "Caltrain",
    "lat": 37.398081,
    "lng": -122.098926,
    "place_id": "",
    "website": null,
    "price_1br": null
  },
  {
    "name": "Chiquita Apartments",
    "address": "365 Chiquita Avenue",
    "city": "Mountain View",
    "rating": 0,
    "reviews": 0,
    "phone": null,
    "transit": "Caltrain",
    "lat": 37.395787,
    "lng": -122.090207,
    "place_id": "",
    "website": null,
    "price_1br": null
  },
  {
    "name": "Colonnade",
    "address": "4750 El Camino Real",
    "city": "Mountain View",
    "rating": 0,
    "reviews": 0,
    "phone": "+1-650-559-8500",
    "transit": "Caltrain",
    "lat": 37.399453,
    "lng": -122.111877,
    "place_id": "",
    "website": "https://colonnadeapartments.stanford.edu/",
    "price_1br": null
  },
  {
    "name": "Crown",
    "address": "2010 California Street",
    "city": "Mountain View",
    "rating": 0,
    "reviews": 0,
    "phone": null,
    "transit": "Caltrain",
    "lat": 37.398367,
    "lng": -122.097208,
    "place_id": "",
    "website": null,
    "price_1br": null
  },
  {
    "name": "Del Medio Manor",
    "address": "141 Del Medio Avenue",
    "city": "Mountain View",
    "rating": 0,
    "reviews": 0,
    "phone": null,
    "transit": "Caltrain",
    "lat": 37.408674,
    "lng": -122.111026,
    "place_id": "",
    "website": null,
    "price_1br": null
  },
  {
    "name": "Domizile",
    "address": "550 Ortega Avenue",
    "city": "Mountain View",
    "rating": 0,
    "reviews": 0,
    "phone": null,
    "transit": "Caltrain",
    "lat": 37.398937,
    "lng": -122.106264,
    "place_id": "",
    "website": null,
    "price_1br": null
  },
  {
    "name": "Dry Creek Apartments",
    "address": "2272 Latham Street",
    "city": "Mountain View",
    "rating": 0,
    "reviews": 0,
    "phone": null,
    "transit": "Caltrain",
    "lat": 37.39899,
    "lng": -122.104315,
    "place_id": "",
    "website": null,
    "price_1br": null
  },
  {
    "name": "E Building",
    "address": "",
    "city": "Mountain View",
    "rating": 0,
    "reviews": 0,
    "phone": null,
    "transit": "Caltrain",
    "lat": 37.403925,
    "lng": -122.103365,
    "place_id": "",
    "website": null,
    "price_1br": null
  },
  {
    "name": "Eagle Park Apartments",
    "address": "1701 West El Camino Real",
    "city": "Mountain View",
    "rating": 0,
    "reviews": 0,
    "phone": null,
    "transit": "Caltrain",
    "lat": 37.390272,
    "lng": -122.093881,
    "place_id": "",
    "website": "https://altahousing.org/properties/eagle-park/",
    "price_1br": null
  },
  {
    "name": "El Portal Apartments",
    "address": "2065 California Street",
    "city": "Mountain View",
    "rating": 0,
    "reviews": 0,
    "phone": "+1 650-964-3950",
    "transit": "Caltrain",
    "lat": 37.398344,
    "lng": -122.099501,
    "place_id": "",
    "website": "https://www.elportalmv.com/",
    "price_1br": null
  },
  {
    "name": "Forest Glen",
    "address": "1 Forest Glen St",
    "city": "Mountain View",
    "rating": 4.7,
    "reviews": 13,
    "phone": "+1 650-564-2220",
    "transit": "Caltrain",
    "lat": 37.4061,
    "lng": -122.0906,
    "place_id": "ChIJCc8qYK6wj4ARXeNwV8xvZoc",
    "website": null,
    "price_1br": null
  },
  {
    "name": "Four Palms Apartments",
    "address": "262 Mariposa Avenue",
    "city": "Mountain View",
    "rating": 0,
    "reviews": 0,
    "phone": null,
    "transit": "Caltrain",
    "lat": 37.396367,
    "lng": -122.089007,
    "place_id": "",
    "website": null,
    "price_1br": null
  },
  {
    "name": "Garden Terrace Townhomes",
    "address": "406 North Rengstorff Avenue",
    "city": "Mountain View",
    "rating": 0,
    "reviews": 0,
    "phone": null,
    "transit": "Caltrain",
    "lat": 37.409405,
    "lng": -122.094534,
    "place_id": "",
    "website": null,
    "price_1br": null
  },
  {
    "name": "Gemello Village",
    "address": "",
    "city": "Mountain View",
    "rating": 0,
    "reviews": 0,
    "phone": null,
    "transit": "Caltrain",
    "lat": 37.394569,
    "lng": -122.100368,
    "place_id": "",
    "website": null,
    "price_1br": null
  },
  {
    "name": "Gemello Village Apartments",
    "address": "2043 West El Camino Real",
    "city": "Mountain View",
    "rating": 0,
    "reviews": 0,
    "phone": null,
    "transit": "Caltrain",
    "lat": 37.394088,
    "lng": -122.100734,
    "place_id": "",
    "website": null,
    "price_1br": null
  },
  {
    "name": "Granada Apartments",
    "address": "120 Granada Drive",
    "city": "Mountain View",
    "rating": 0,
    "reviews": 0,
    "phone": null,
    "transit": "Caltrain",
    "lat": 37.399788,
    "lng": -122.086829,
    "place_id": "",
    "website": null,
    "price_1br": null
  },
  {
    "name": "Greendale Apartments",
    "address": "1200 Dale Ave",
    "city": "Mountain View",
    "rating": 4.6,
    "reviews": 117,
    "phone": "+1 650-314-9971",
    "transit": "Caltrain",
    "lat": 37.3721,
    "lng": -122.0647,
    "place_id": "ChIJeRtJNsO2j4ARpQ16ZMMKo1g",
    "website": null,
    "price_1br": null
  },
  {
    "name": "Greenwood Apartments",
    "address": "1797 California Street",
    "city": "Mountain View",
    "rating": 0,
    "reviews": 0,
    "phone": null,
    "transit": "Caltrain",
    "lat": 37.395571,
    "lng": -122.092611,
    "place_id": "",
    "website": null,
    "price_1br": null
  },
  {
    "name": "Hastings Square West",
    "address": "400A Ortega Avenue",
    "city": "Mountain View",
    "rating": 0,
    "reviews": 0,
    "phone": null,
    "transit": "Caltrain",
    "lat": 37.399589,
    "lng": -122.105647,
    "place_id": "",
    "website": null,
    "price_1br": null
  },
  {
    "name": "Higdon House",
    "address": "323 Higdon Avenue",
    "city": "Mountain View",
    "rating": 0,
    "reviews": 0,
    "phone": null,
    "transit": "Caltrain",
    "lat": 37.396605,
    "lng": -122.091203,
    "place_id": "",
    "website": null,
    "price_1br": null
  },
  {
    "name": "Highland Gardens Building 1",
    "address": "234 Escuela Avenue",
    "city": "Mountain View",
    "rating": 0,
    "reviews": 0,
    "phone": null,
    "transit": "Caltrain",
    "lat": 37.399174,
    "lng": -122.093325,
    "place_id": "",
    "website": null,
    "price_1br": null
  },
  {
    "name": "Highland Gardens Building 10",
    "address": "222 Escuela Avenue",
    "city": "Mountain View",
    "rating": 0,
    "reviews": 0,
    "phone": null,
    "transit": "Caltrain",
    "lat": 37.399779,
    "lng": -122.093266,
    "place_id": "",
    "website": null,
    "price_1br": null
  },
  {
    "name": "Highland Gardens Building 11",
    "address": "222 Escuela Avenue",
    "city": "Mountain View",
    "rating": 0,
    "reviews": 0,
    "phone": null,
    "transit": "Caltrain",
    "lat": 37.399527,
    "lng": -122.093097,
    "place_id": "",
    "website": null,
    "price_1br": null
  },
  {
    "name": "Highland Gardens Building 12",
    "address": "222 Escuela Avenue",
    "city": "Mountain View",
    "rating": 0,
    "reviews": 0,
    "phone": null,
    "transit": "Caltrain",
    "lat": 37.399835,
    "lng": -122.094009,
    "place_id": "",
    "website": null,
    "price_1br": null
  },
  {
    "name": "Highland Gardens Building 2",
    "address": "234 Escuela Avenue",
    "city": "Mountain View",
    "rating": 0,
    "reviews": 0,
    "phone": null,
    "transit": "Caltrain",
    "lat": 37.398995,
    "lng": -122.093434,
    "place_id": "",
    "website": null,
    "price_1br": null
  },
  {
    "name": "Highland Gardens Building 3",
    "address": "234 Escuela Avenue",
    "city": "Mountain View",
    "rating": 0,
    "reviews": 0,
    "phone": null,
    "transit": "Caltrain",
    "lat": 37.399531,
    "lng": -122.094228,
    "place_id": "",
    "website": null,
    "price_1br": null
  },
  {
    "name": "Highland Gardens Building 4",
    "address": "234 Escuela Avenue",
    "city": "Mountain View",
    "rating": 0,
    "reviews": 0,
    "phone": null,
    "transit": "Caltrain",
    "lat": 37.399397,
    "lng": -122.094454,
    "place_id": "",
    "website": null,
    "price_1br": null
  },
  {
    "name": "Highland Gardens Building 5",
    "address": "234 Escuela Avenue",
    "city": "Mountain View",
    "rating": 0,
    "reviews": 0,
    "phone": null,
    "transit": "Caltrain",
    "lat": 37.399692,
    "lng": -122.095228,
    "place_id": "",
    "website": null,
    "price_1br": null
  },
  {
    "name": "Highland Gardens Building 6",
    "address": "234 Escuela Avenue",
    "city": "Mountain View",
    "rating": 0,
    "reviews": 0,
    "phone": null,
    "transit": "Caltrain",
    "lat": 37.400317,
    "lng": -122.094955,
    "place_id": "",
    "website": null,
    "price_1br": null
  },
  {
    "name": "Highland Gardens Building 7",
    "address": "234 Escuela Avenue",
    "city": "Mountain View",
    "rating": 0,
    "reviews": 0,
    "phone": null,
    "transit": "Caltrain",
    "lat": 37.400197,
    "lng": -122.094474,
    "place_id": "",
    "website": null,
    "price_1br": null
  },
  {
    "name": "Highland Gardens Building 8",
    "address": "222 Escuela Avenue",
    "city": "Mountain View",
    "rating": 0,
    "reviews": 0,
    "phone": null,
    "transit": "Caltrain",
    "lat": 37.399545,
    "lng": -122.093615,
    "place_id": "",
    "website": null,
    "price_1br": null
  },
  {
    "name": "Highland Gardens Building 9",
    "address": "222 Escuela Avenue",
    "city": "Mountain View",
    "rating": 0,
    "reviews": 0,
    "phone": null,
    "transit": "Caltrain",
    "lat": 37.399625,
    "lng": -122.093376,
    "place_id": "",
    "website": null,
    "price_1br": null
  },
  {
    "name": "J Building",
    "address": "",
    "city": "Mountain View",
    "rating": 0,
    "reviews": 0,
    "phone": null,
    "transit": "Caltrain",
    "lat": 37.404632,
    "lng": -122.10367,
    "place_id": "",
    "website": null,
    "price_1br": null
  },
  {
    "name": "King",
    "address": "2000 California Street",
    "city": "Mountain View",
    "rating": 0,
    "reviews": 0,
    "phone": null,
    "transit": "Caltrain",
    "lat": 37.39816,
    "lng": -122.096754,
    "place_id": "",
    "website": null,
    "price_1br": null
  },
  {
    "name": "Ladera Apartments",
    "address": "398 Ortega Ave",
    "city": "Mountain View",
    "rating": 4.8,
    "reviews": 46,
    "phone": "+1 833-495-1492",
    "transit": "Caltrain",
    "lat": 37.4008,
    "lng": -122.1047,
    "place_id": "ChIJhw_aSpyxj4ARJmCmH8RDFys",
    "website": null,
    "price_1br": null
  },
  {
    "name": "Larkspur Woods",
    "address": "1957 California Street",
    "city": "Mountain View",
    "rating": 0,
    "reviews": 0,
    "phone": null,
    "transit": "Caltrain",
    "lat": 37.397305,
    "lng": -122.09668,
    "place_id": "",
    "website": null,
    "price_1br": null
  },
  {
    "name": "Latham Gardens",
    "address": "2030 Latham Street",
    "city": "Mountain View",
    "rating": 0,
    "reviews": 0,
    "phone": null,
    "transit": "Caltrain",
    "lat": 37.396338,
    "lng": -122.099454,
    "place_id": "",
    "website": null,
    "price_1br": null
  },
  {
    "name": "Latham West",
    "address": "2295 Latham Street",
    "city": "Mountain View",
    "rating": 0,
    "reviews": 0,
    "phone": null,
    "transit": "Caltrain",
    "lat": 37.398791,
    "lng": -122.105267,
    "place_id": "",
    "website": null,
    "price_1br": null
  },
  {
    "name": "Loma Vista",
    "address": "2017 California Street",
    "city": "Mountain View",
    "rating": 0,
    "reviews": 0,
    "phone": null,
    "transit": "Caltrain",
    "lat": 37.39761,
    "lng": -122.09785,
    "place_id": "",
    "website": null,
    "price_1br": null
  },
  {
    "name": "Madera Apartments",
    "address": "455 W Evelyn Ave",
    "city": "Mountain View",
    "rating": 4.5,
    "reviews": 182,
    "phone": "+1 650-241-2205",
    "transit": "Caltrain",
    "lat": 37.3923,
    "lng": -122.0739,
    "place_id": "ChIJXwFo5jC3j4ARp0o5eyyqvhE",
    "website": null,
    "price_1br": null
  },
  {
    "name": "Maplewood Apartments",
    "address": "1885",
    "city": "Mountain View",
    "rating": 0,
    "reviews": 0,
    "phone": null,
    "transit": "Caltrain",
    "lat": 37.396034,
    "lng": -122.093811,
    "place_id": "",
    "website": null,
    "price_1br": null
  },
  {
    "name": "Mari-Court",
    "address": "586 Mariposa Avenue",
    "city": "Mountain View",
    "rating": 0,
    "reviews": 0,
    "phone": null,
    "transit": "Caltrain",
    "lat": 37.39276,
    "lng": -122.091168,
    "place_id": "",
    "website": null,
    "price_1br": null
  },
  {
    "name": "Mariposa Arms",
    "address": "551 Mariposa Avenue",
    "city": "Mountain View",
    "rating": 0,
    "reviews": 0,
    "phone": null,
    "transit": "Caltrain",
    "lat": 37.392712,
    "lng": -122.090337,
    "place_id": "",
    "website": null,
    "price_1br": null
  },
  {
    "name": "Monroe Villa",
    "address": "565 Escuela Avenue",
    "city": "Mountain View",
    "rating": 0,
    "reviews": 0,
    "phone": null,
    "transit": "Caltrain",
    "lat": 37.394665,
    "lng": -122.094938,
    "place_id": "",
    "website": null,
    "price_1br": null
  },
  {
    "name": "Montclair Dauphine",
    "address": "426 Escuela Avenue",
    "city": "Mountain View",
    "rating": 0,
    "reviews": 0,
    "phone": null,
    "transit": "Caltrain",
    "lat": 37.396336,
    "lng": -122.09491,
    "place_id": "",
    "website": null,
    "price_1br": null
  },
  {
    "name": "Monticello",
    "address": "1930 Mount Vernon Court",
    "city": "Mountain View",
    "rating": 0,
    "reviews": 0,
    "phone": null,
    "transit": "Caltrain",
    "lat": 37.396321,
    "lng": -122.09561,
    "place_id": "",
    "website": null,
    "price_1br": null
  },
  {
    "name": "Montpelier",
    "address": "1935 Mount Vernon Court",
    "city": "Mountain View",
    "rating": 0,
    "reviews": 0,
    "phone": null,
    "transit": "Caltrain",
    "lat": 37.395907,
    "lng": -122.095865,
    "place_id": "",
    "website": null,
    "price_1br": null
  },
  {
    "name": "Montrose Apartments",
    "address": "1720 W El Camino Real",
    "city": "Mountain View",
    "rating": 4.4,
    "reviews": 133,
    "phone": "+1 650-318-5554",
    "transit": "Caltrain",
    "lat": 37.391,
    "lng": -122.0938,
    "place_id": "ChIJewpFXsiwj4ARYmrX0OzOiLw",
    "website": null,
    "price_1br": null
  },
  {
    "name": "Mount Vernon",
    "address": "1910 Mount Vernon Court",
    "city": "Mountain View",
    "rating": 0,
    "reviews": 0,
    "phone": null,
    "transit": "Caltrain",
    "lat": 37.396083,
    "lng": -122.095037,
    "place_id": "",
    "website": null,
    "price_1br": null
  },
  {
    "name": "Mountain View Senior Citizens Center",
    "address": "266 Escuela Avenue",
    "city": "Mountain View",
    "rating": 0,
    "reviews": 0,
    "phone": null,
    "transit": "Caltrain",
    "lat": 37.398837,
    "lng": -122.094245,
    "place_id": "",
    "website": null,
    "price_1br": null
  },
  {
    "name": "N Building",
    "address": "",
    "city": "Mountain View",
    "rating": 0,
    "reviews": 0,
    "phone": null,
    "transit": "Caltrain",
    "lat": 37.404185,
    "lng": -122.104363,
    "place_id": "",
    "website": null,
    "price_1br": null
  },
  {
    "name": "Palo Alto Place Apartments",
    "address": "565 Arastradero Road",
    "city": "Mountain View",
    "rating": 0,
    "reviews": 0,
    "phone": null,
    "transit": "Caltrain",
    "lat": 37.408641,
    "lng": -122.1241,
    "place_id": "",
    "website": null,
    "price_1br": null
  },
  {
    "name": "Palo Alto Plaza",
    "address": "541 Del Medio Ave",
    "city": "Mountain View",
    "rating": 4.6,
    "reviews": 97,
    "phone": "+1 650-935-4362",
    "transit": "Caltrain",
    "lat": 37.4041,
    "lng": -122.1161,
    "place_id": "ChIJBfV9BZ2wj4ARKG_SqKQurcU",
    "website": null,
    "price_1br": null
  },
  {
    "name": "Parc Crossings Condominiums",
    "address": "2255 Showers Drive",
    "city": "Mountain View",
    "rating": 0,
    "reviews": 0,
    "phone": null,
    "transit": "Caltrain",
    "lat": 37.407261,
    "lng": -122.108198,
    "place_id": "",
    "website": "http://www.parccrossings.com/",
    "price_1br": null
  },
  {
    "name": "Park Place Apartments",
    "address": "851 Church St",
    "city": "Mountain View",
    "rating": 4.1,
    "reviews": 279,
    "phone": "+1 650-300-5290",
    "transit": "Caltrain",
    "lat": 37.3891,
    "lng": -122.0844,
    "place_id": "ChIJ20Ok0Mywj4AR0Ugc7wjSl54",
    "website": null,
    "price_1br": null
  },
  {
    "name": "Park Vista Apartments",
    "address": "316 Escuela Avenue",
    "city": "Mountain View",
    "rating": 0,
    "reviews": 0,
    "phone": null,
    "transit": "Caltrain",
    "lat": 37.398101,
    "lng": -122.09464,
    "place_id": "",
    "website": null,
    "price_1br": null
  },
  {
    "name": "Redwood Villa Retirement Residence",
    "address": "1981 Montecito Avenue",
    "city": "Mountain View",
    "rating": 0,
    "reviews": 0,
    "phone": null,
    "transit": "Caltrain",
    "lat": 37.405247,
    "lng": -122.093186,
    "place_id": "",
    "website": null,
    "price_1br": null
  },
  {
    "name": "Regency at Mountain View",
    "address": "333 Escuela Ave",
    "city": "Mountain View",
    "rating": 4.0,
    "reviews": 101,
    "phone": "+1 650-729-1458",
    "transit": "Caltrain",
    "lat": 37.3974,
    "lng": -122.0931,
    "place_id": "ChIJ0WDlOrewj4ARt7QnJKHL0Gw",
    "website": null,
    "price_1br": null
  },
  {
    "name": "San Antonio Place",
    "address": "",
    "city": "Mountain View",
    "rating": 0,
    "reviews": 0,
    "phone": null,
    "transit": "Caltrain",
    "lat": 37.407766,
    "lng": -122.110163,
    "place_id": "",
    "website": "https://charitieshousing.org/san-antonio-place/",
    "price_1br": null
  },
  {
    "name": "Sharron",
    "address": "2050 California Street",
    "city": "Mountain View",
    "rating": 0,
    "reviews": 0,
    "phone": null,
    "transit": "Caltrain",
    "lat": 37.399026,
    "lng": -122.09897,
    "place_id": "",
    "website": null,
    "price_1br": null
  },
  {
    "name": "Sierra Vista Apartments",
    "address": "917 Sierra Vista Avenue",
    "city": "Mountain View",
    "rating": 0,
    "reviews": 0,
    "phone": null,
    "transit": "Caltrain",
    "lat": 37.417578,
    "lng": -122.089415,
    "place_id": "",
    "website": "https://sierravista.eprodesse.com/",
    "price_1br": null
  },
  {
    "name": "Stanford Gate A",
    "address": "183 Del Medio Avenue",
    "city": "Mountain View",
    "rating": 0,
    "reviews": 0,
    "phone": null,
    "transit": "Caltrain",
    "lat": 37.407878,
    "lng": -122.111896,
    "place_id": "",
    "website": null,
    "price_1br": null
  },
  {
    "name": "Stanford Gate B",
    "address": "181 Del Medio Avenue",
    "city": "Mountain View",
    "rating": 0,
    "reviews": 0,
    "phone": null,
    "transit": "Caltrain",
    "lat": 37.4083,
    "lng": -122.111473,
    "place_id": "",
    "website": null,
    "price_1br": null
  },
  {
    "name": "Sunshine Gardens",
    "address": "132-150 W Dana St",
    "city": "Mountain View",
    "rating": 4.5,
    "reviews": 28,
    "phone": "+1 650-968-5695",
    "transit": "Caltrain",
    "lat": 37.3899,
    "lng": -122.0715,
    "place_id": "ChIJqSAuTiW3j4ARbVOiHZ4_7HA",
    "website": null,
    "price_1br": null
  },
  {
    "name": "Sunshine Gardens 132",
    "address": "132 West Dana Street",
    "city": "Mountain View",
    "rating": 0,
    "reviews": 0,
    "phone": null,
    "transit": "Caltrain",
    "lat": 37.389449,
    "lng": -122.071628,
    "place_id": "",
    "website": null,
    "price_1br": null
  },
  {
    "name": "Sunshine Gardens 134",
    "address": "134 West Dana Street",
    "city": "Mountain View",
    "rating": 0,
    "reviews": 0,
    "phone": null,
    "transit": "Caltrain",
    "lat": 37.389584,
    "lng": -122.071515,
    "place_id": "",
    "website": null,
    "price_1br": null
  },
  {
    "name": "Sunshine Gardens 136",
    "address": "136 West Dana Street",
    "city": "Mountain View",
    "rating": 0,
    "reviews": 0,
    "phone": null,
    "transit": "Caltrain",
    "lat": 37.389738,
    "lng": -122.071418,
    "place_id": "",
    "website": null,
    "price_1br": null
  },
  {
    "name": "Sunshine Gardens 138",
    "address": "138 West Dana Street",
    "city": "Mountain View",
    "rating": 0,
    "reviews": 0,
    "phone": null,
    "transit": "Caltrain",
    "lat": 37.389876,
    "lng": -122.071327,
    "place_id": "",
    "website": null,
    "price_1br": null
  },
  {
    "name": "The Californian Apartments",
    "address": "2330 California Street",
    "city": "Mountain View",
    "rating": 0,
    "reviews": 0,
    "phone": null,
    "transit": "Caltrain",
    "lat": 37.402481,
    "lng": -122.105015,
    "place_id": "",
    "website": null,
    "price_1br": null
  },
  {
    "name": "The Charleston",
    "address": "1940 Mount Vernon Court",
    "city": "Mountain View",
    "rating": 0,
    "reviews": 0,
    "phone": null,
    "transit": "Caltrain",
    "lat": 37.396508,
    "lng": -122.096195,
    "place_id": "",
    "website": null,
    "price_1br": null
  },
  {
    "name": "The Dean",
    "address": "458 San Antonio Road",
    "city": "Mountain View",
    "rating": 0,
    "reviews": 0,
    "phone": null,
    "transit": "Caltrain",
    "lat": 37.404653,
    "lng": -122.112297,
    "place_id": "",
    "website": null,
    "price_1br": null
  },
  {
    "name": "The Elena Apartments",
    "address": "1920 California Street",
    "city": "Mountain View",
    "rating": 0,
    "reviews": 0,
    "phone": null,
    "transit": "Caltrain",
    "lat": 37.397471,
    "lng": -122.094954,
    "place_id": "",
    "website": null,
    "price_1br": null
  },
  {
    "name": "The Huntington Apartments",
    "address": "981 Bonita Avenue",
    "city": "Mountain View",
    "rating": 0,
    "reviews": 0,
    "phone": null,
    "transit": "Caltrain",
    "lat": 37.382179,
    "lng": -122.080441,
    "place_id": "",
    "website": null,
    "price_1br": null
  },
  {
    "name": "The Jefferson",
    "address": "1915 Mount Vernon Court",
    "city": "Mountain View",
    "rating": 0,
    "reviews": 0,
    "phone": null,
    "transit": "Caltrain",
    "lat": 37.395676,
    "lng": -122.095295,
    "place_id": "",
    "website": null,
    "price_1br": null
  },
  {
    "name": "The Lafayette",
    "address": "1943 Mount Vernon Court",
    "city": "Mountain View",
    "rating": 0,
    "reviews": 0,
    "phone": null,
    "transit": "Caltrain",
    "lat": 37.396521,
    "lng": -122.097023,
    "place_id": "",
    "website": null,
    "price_1br": null
  },
  {
    "name": "The Latham",
    "address": "1920 Latham Street",
    "city": "Mountain View",
    "rating": 0,
    "reviews": 0,
    "phone": null,
    "transit": "Caltrain",
    "lat": 37.394958,
    "lng": -122.096338,
    "place_id": "",
    "website": null,
    "price_1br": null
  },
  {
    "name": "The Luzern",
    "address": "500",
    "city": "Mountain View",
    "rating": 0,
    "reviews": 0,
    "phone": null,
    "transit": "Caltrain",
    "lat": 37.394081,
    "lng": -122.092188,
    "place_id": "",
    "website": null,
    "price_1br": null
  },
  {
    "name": "The Montclair Cerise",
    "address": "1937 California Street",
    "city": "Mountain View",
    "rating": 0,
    "reviews": 0,
    "phone": null,
    "transit": "Caltrain",
    "lat": 37.396911,
    "lng": -122.09583,
    "place_id": "",
    "website": null,
    "price_1br": null
  },
  {
    "name": "The Regency",
    "address": "333 Escuela Avenue",
    "city": "Mountain View",
    "rating": 0,
    "reviews": 0,
    "phone": null,
    "transit": "Caltrain",
    "lat": 37.397292,
    "lng": -122.092858,
    "place_id": "",
    "website": null,
    "price_1br": null
  },
  {
    "name": "The Savannah",
    "address": "1945 Mount Vernon Court",
    "city": "Mountain View",
    "rating": 0,
    "reviews": 0,
    "phone": null,
    "transit": "Caltrain",
    "lat": 37.396212,
    "lng": -122.096371,
    "place_id": "",
    "website": null,
    "price_1br": null
  },
  {
    "name": "The Shadows",
    "address": "750 N Shoreline Blvd",
    "city": "Mountain View",
    "rating": 4.1,
    "reviews": 91,
    "phone": "+1 650-265-1766",
    "transit": "Caltrain",
    "lat": 37.4054,
    "lng": -122.0785,
    "place_id": "ChIJP6ha0U23j4ARRsq8lqbIW9g",
    "website": null,
    "price_1br": null
  },
  {
    "name": "The Tillery",
    "address": "1720 Villa St",
    "city": "Mountain View",
    "rating": 4.6,
    "reviews": 62,
    "phone": "+1 833-964-4210",
    "transit": "Caltrain",
    "lat": 37.3983,
    "lng": -122.0898,
    "place_id": "ChIJNzJag-Gxj4AR04FrSwxKrhY",
    "website": null,
    "price_1br": null
  },
  {
    "name": "Union Plaza Apartments",
    "address": "535 Arastradero Road",
    "city": "Mountain View",
    "rating": 0,
    "reviews": 0,
    "phone": null,
    "transit": "Caltrain",
    "lat": 37.408986,
    "lng": -122.123464,
    "place_id": "",
    "website": null,
    "price_1br": null
  },
  {
    "name": "W Building",
    "address": "",
    "city": "Mountain View",
    "rating": 0,
    "reviews": 0,
    "phone": null,
    "transit": "Caltrain",
    "lat": 37.405156,
    "lng": -122.104857,
    "place_id": "",
    "website": null,
    "price_1br": null
  },
  {
    "name": "Willow",
    "address": "1940 California Street",
    "city": "Mountain View",
    "rating": 0,
    "reviews": 0,
    "phone": null,
    "transit": "Caltrain",
    "lat": 37.397644,
    "lng": -122.095388,
    "place_id": "",
    "website": null,
    "price_1br": null
  },
  {
    "name": "Windsor Apartments",
    "address": "1900 California Street",
    "city": "Mountain View",
    "rating": 0,
    "reviews": 0,
    "phone": null,
    "transit": "Caltrain",
    "lat": 37.397231,
    "lng": -122.09445,
    "place_id": "",
    "website": null,
    "price_1br": null
  },
  {
    "name": "Woodside Place",
    "address": "2033 Latham Street",
    "city": "Mountain View",
    "rating": 0,
    "reviews": 0,
    "phone": null,
    "transit": "Caltrain",
    "lat": 37.395965,
    "lng": -122.099877,
    "place_id": "",
    "website": null,
    "price_1br": null
  },
  {
    "name": "X Building",
    "address": "",
    "city": "Mountain View",
    "rating": 0,
    "reviews": 0,
    "phone": null,
    "transit": "Caltrain",
    "lat": 37.404239,
    "lng": -122.104756,
    "place_id": "",
    "website": null,
    "price_1br": null
  },
  {
    "name": "eaves Creekside",
    "address": "151 Calderon Ave",
    "city": "Mountain View",
    "rating": 4.4,
    "reviews": 222,
    "phone": "+1 650-528-2129",
    "transit": "Caltrain",
    "lat": 37.391,
    "lng": -122.0717,
    "place_id": "ChIJO7afMCW3j4AR9E2cTuZRRvw",
    "website": null,
    "price_1br": null
  },
  {
    "name": "eaves at Middlefield",
    "address": "555 W Middlefield Rd",
    "city": "Mountain View",
    "rating": 4.5,
    "reviews": 424,
    "phone": "+1 650-528-2127",
    "transit": "Caltrain",
    "lat": 37.3986,
    "lng": -122.0704,
    "place_id": "ChIJTSeIGDi3j4ARZuD_lkzu-dI",
    "website": null,
    "price_1br": null
  },
  {
    "name": "430 Forest Apartments",
    "address": "430 Forest Ave",
    "city": "Palo Alto",
    "rating": 5.0,
    "reviews": 2,
    "phone": "+1 650-380-3413",
    "transit": "Caltrain",
    "lat": 37.4459,
    "lng": -122.1574,
    "place_id": "ChIJgRBWhLm7j4ARlFaoffPqJR0",
    "website": null,
    "price_1br": null
  },
  {
    "name": "801 Alma Family Apartments",
    "address": "801 Alma Street",
    "city": "Palo Alto",
    "rating": 0,
    "reviews": 0,
    "phone": null,
    "transit": "Caltrain",
    "lat": 37.441041,
    "lng": -122.159679,
    "place_id": "",
    "website": "https://www.edenhousing.org/property/801-alma-family-apartments",
    "price_1br": null
  },
  {
    "name": "Abrams Midrise",
    "address": "63 Abrams Court",
    "city": "Palo Alto",
    "rating": 0,
    "reviews": 0,
    "phone": null,
    "transit": "Caltrain",
    "lat": 37.426755,
    "lng": -122.151965,
    "place_id": "",
    "website": null,
    "price_1br": null
  },
  {
    "name": "Alma Estates",
    "address": "2551 Alma Street",
    "city": "Palo Alto",
    "rating": 0,
    "reviews": 0,
    "phone": null,
    "transit": "Caltrain",
    "lat": 37.427422,
    "lng": -122.137773,
    "place_id": "",
    "website": null,
    "price_1br": null
  },
  {
    "name": "Arastradero West Apartments",
    "address": "724 Arastradero Road",
    "city": "Palo Alto",
    "rating": 0,
    "reviews": 0,
    "phone": null,
    "transit": "Caltrain",
    "lat": 37.400888,
    "lng": -122.131225,
    "place_id": "",
    "website": null,
    "price_1br": null
  },
  {
    "name": "Barnes Midrise",
    "address": "74 Barnes Court",
    "city": "Palo Alto",
    "rating": 0,
    "reviews": 0,
    "phone": null,
    "transit": "Caltrain",
    "lat": 37.427428,
    "lng": -122.152603,
    "place_id": "",
    "website": null,
    "price_1br": null
  },
  {
    "name": "Branner Hall",
    "address": "655 Escondido Road",
    "city": "Palo Alto",
    "rating": 0,
    "reviews": 0,
    "phone": null,
    "transit": "Caltrain",
    "lat": 37.425518,
    "lng": -122.162865,
    "place_id": "",
    "website": null,
    "price_1br": null
  },
  {
    "name": "Channing House",
    "address": "850 Webster Street",
    "city": "Palo Alto",
    "rating": 0,
    "reviews": 0,
    "phone": "+1 650-327-0950",
    "transit": "Caltrain",
    "lat": 37.446434,
    "lng": -122.153988,
    "place_id": "",
    "website": null,
    "price_1br": null
  },
  {
    "name": "Emerson House",
    "address": "330 Emerson Street",
    "city": "Palo Alto",
    "rating": 0,
    "reviews": 0,
    "phone": null,
    "transit": "Caltrain",
    "lat": 37.44604,
    "lng": -122.164592,
    "place_id": "",
    "website": "https://altahousing.org/properties/emerson-house/",
    "price_1br": null
  },
  {
    "name": "Escondido Village, EVGR Bldg A",
    "address": "757 Campus Drive",
    "city": "Palo Alto",
    "rating": 0,
    "reviews": 0,
    "phone": null,
    "transit": "Caltrain",
    "lat": 37.424884,
    "lng": -122.158625,
    "place_id": "",
    "website": null,
    "price_1br": null
  },
  {
    "name": "Gateway Village",
    "address": "",
    "city": "Palo Alto",
    "rating": 0,
    "reviews": 0,
    "phone": null,
    "transit": "Caltrain",
    "lat": 37.446152,
    "lng": -122.167778,
    "place_id": "",
    "website": null,
    "price_1br": null
  },
  {
    "name": "Hulme Midrise",
    "address": "87 Hulme Court",
    "city": "Palo Alto",
    "rating": 0,
    "reviews": 0,
    "phone": null,
    "transit": "Caltrain",
    "lat": 37.427797,
    "lng": -122.153955,
    "place_id": "",
    "website": null,
    "price_1br": null
  },
  {
    "name": "Live Oak Apartments",
    "address": "722",
    "city": "Palo Alto",
    "rating": 0,
    "reviews": 0,
    "phone": null,
    "transit": "Caltrain",
    "lat": 37.450724,
    "lng": -122.182326,
    "place_id": "",
    "website": null,
    "price_1br": null
  },
  {
    "name": "Lytton Arbor",
    "address": "656 Lytton Avenue",
    "city": "Palo Alto",
    "rating": 0,
    "reviews": 0,
    "phone": null,
    "transit": "Caltrain",
    "lat": 37.450841,
    "lng": -122.158214,
    "place_id": "",
    "website": null,
    "price_1br": null
  },
  {
    "name": "Mirrielees",
    "address": "",
    "city": "Palo Alto",
    "rating": 0,
    "reviews": 0,
    "phone": null,
    "transit": "Caltrain",
    "lat": 37.423436,
    "lng": -122.159708,
    "place_id": "",
    "website": null,
    "price_1br": null
  },
  {
    "name": "Moldaw Residences",
    "address": "899 East Charleston Road",
    "city": "Palo Alto",
    "rating": 0,
    "reviews": 0,
    "phone": null,
    "transit": "Caltrain",
    "lat": 37.422762,
    "lng": -122.10281,
    "place_id": "",
    "website": null,
    "price_1br": null
  },
  {
    "name": "Palo Alto Place",
    "address": "565 Arastradero Rd",
    "city": "Palo Alto",
    "rating": 4.2,
    "reviews": 21,
    "phone": "+1 833-715-3297",
    "transit": "Caltrain",
    "lat": 37.4086,
    "lng": -122.1241,
    "place_id": "ChIJt-nnEHy6j4ARSdeLV-3WIwQ",
    "website": null,
    "price_1br": null
  },
  {
    "name": "Quillen Highrise",
    "address": "119 Quillen Court",
    "city": "Palo Alto",
    "rating": 0,
    "reviews": 0,
    "phone": null,
    "transit": "Caltrain",
    "lat": 37.425894,
    "lng": -122.158777,
    "place_id": "",
    "website": null,
    "price_1br": null
  },
  {
    "name": "Ronald McDonald House",
    "address": "520 Sand Hill Road",
    "city": "Palo Alto",
    "rating": 0,
    "reviews": 0,
    "phone": null,
    "transit": "Caltrain",
    "lat": 37.442773,
    "lng": -122.174566,
    "place_id": "",
    "website": null,
    "price_1br": null
  },
  {
    "name": "Studio 2",
    "address": "729 Campus Drive",
    "city": "Palo Alto",
    "rating": 0,
    "reviews": 0,
    "phone": null,
    "transit": "Caltrain",
    "lat": 37.425006,
    "lng": -122.159838,
    "place_id": "",
    "website": null,
    "price_1br": null
  },
  {
    "name": "The Marc",
    "address": "501-#8405 Cowper Street",
    "city": "Palo Alto",
    "rating": 0,
    "reviews": 0,
    "phone": null,
    "transit": "Caltrain",
    "lat": 37.447234,
    "lng": -122.156815,
    "place_id": "",
    "website": null,
    "price_1br": null
  },
  {
    "name": "The Palomino",
    "address": "2755 El Camino Real",
    "city": "Palo Alto",
    "rating": 4.9,
    "reviews": 25,
    "phone": "+1 650-456-7563",
    "transit": "Caltrain",
    "lat": 37.4235,
    "lng": -122.1423,
    "place_id": "ChIJ_28CRe66j4ARMOJCmnr-LV4",
    "website": null,
    "price_1br": null
  },
  {
    "name": "Toyon Hall",
    "address": "455 Arguello Way",
    "city": "Palo Alto",
    "rating": 0,
    "reviews": 0,
    "phone": null,
    "transit": "Caltrain",
    "lat": 37.426038,
    "lng": -122.163568,
    "place_id": "",
    "website": null,
    "price_1br": null
  },
  {
    "name": "Union Plaza",
    "address": "535 Arastradero Rd",
    "city": "Palo Alto",
    "rating": 4.9,
    "reviews": 16,
    "phone": "+1 650-493-8570",
    "transit": "Caltrain",
    "lat": 37.4091,
    "lng": -122.1237,
    "place_id": "ChIJj-wTCny6j4AR18RYjlEQM-I",
    "website": null,
    "price_1br": null
  },
  {
    "name": "Vi at Palo Alto",
    "address": "620 Sand Hill Road",
    "city": "Palo Alto",
    "rating": 0,
    "reviews": 0,
    "phone": null,
    "transit": "Caltrain",
    "lat": 37.440412,
    "lng": -122.176091,
    "place_id": "",
    "website": null,
    "price_1br": null
  },
  {
    "name": "Webster House",
    "address": "437 Webster Street",
    "city": "Palo Alto",
    "rating": 0,
    "reviews": 0,
    "phone": "+1 650 327 4333",
    "transit": "Caltrain",
    "lat": 37.450042,
    "lng": -122.158233,
    "place_id": "",
    "website": "https://covia.org/webster-house/",
    "price_1br": null
  },
  {
    "name": "Wellsbury Apartment Homes",
    "address": "3085 Middlefield Road",
    "city": "Palo Alto",
    "rating": 0,
    "reviews": 0,
    "phone": null,
    "transit": "Caltrain",
    "lat": 37.430779,
    "lng": -122.124179,
    "place_id": "",
    "website": null,
    "price_1br": null
  },
  {
    "name": "Willis Lounge",
    "address": "219 Ayrshire Farm Lane",
    "city": "Palo Alto",
    "rating": 0,
    "reviews": 0,
    "phone": null,
    "transit": "Caltrain",
    "lat": 37.421232,
    "lng": -122.15895,
    "place_id": "",
    "website": null,
    "price_1br": null
  },
  {
    "name": "Woodland Arms",
    "address": "1717 Woodland Avenue",
    "city": "Palo Alto",
    "rating": 0,
    "reviews": 0,
    "phone": null,
    "transit": "Caltrain",
    "lat": 37.455203,
    "lng": -122.138403,
    "place_id": "",
    "website": null,
    "price_1br": null
  },
  {
    "name": "Almaden Lake Village",
    "address": "1045 Coleman Rd",
    "city": "S. San Jose",
    "rating": 3.9,
    "reviews": 110,
    "phone": "+1 669-338-1018",
    "transit": "VTA",
    "lat": 37.2441,
    "lng": -121.8695,
    "place_id": "ChIJk-rse2QxjoARbWw7uLz_6ps",
    "website": null,
    "price_1br": null
  },
  {
    "name": "DUO Apartments",
    "address": "6670 Emergent Way",
    "city": "S. San Jose",
    "rating": 4.3,
    "reviews": 171,
    "phone": "+1 408-224-8640",
    "transit": "VTA",
    "lat": 37.2407,
    "lng": -121.7888,
    "place_id": "ChIJsYuj7YovjoARpMjmixj6jTc",
    "website": null,
    "price_1br": null
  },
  {
    "name": "101 San Fernando",
    "address": "101 East San Fernando Street",
    "city": "San Jose",
    "rating": 0,
    "reviews": 0,
    "phone": null,
    "transit": "BART/Caltrain/VTA",
    "lat": 37.336251,
    "lng": -121.887065,
    "place_id": "",
    "website": null,
    "price_1br": null
  },
  {
    "name": "188 West Saint James",
    "address": "188 West Saint James Street",
    "city": "San Jose",
    "rating": 0,
    "reviews": 0,
    "phone": null,
    "transit": "BART/Caltrain/VTA",
    "lat": 37.337397,
    "lng": -121.895327,
    "place_id": "",
    "website": null,
    "price_1br": null
  },
  {
    "name": "27 North Apartments",
    "address": "",
    "city": "San Jose",
    "rating": 0,
    "reviews": 0,
    "phone": null,
    "transit": "BART/Caltrain/VTA",
    "lat": 37.339098,
    "lng": -121.886154,
    "place_id": "",
    "website": "https://27north.com/",
    "price_1br": null
  },
  {
    "name": "360 Residences",
    "address": "",
    "city": "San Jose",
    "rating": 0,
    "reviews": 0,
    "phone": null,
    "transit": "BART/Caltrain/VTA",
    "lat": 37.330185,
    "lng": -121.886941,
    "place_id": "",
    "website": "http://www.360residences.com/",
    "price_1br": null
  },
  {
    "name": "45 North",
    "address": "45 North 8th Street",
    "city": "San Jose",
    "rating": 0,
    "reviews": 0,
    "phone": null,
    "transit": "BART/Caltrain/VTA",
    "lat": 37.340318,
    "lng": -121.884003,
    "place_id": "",
    "website": null,
    "price_1br": null
  },
  {
    "name": "787 The Alameda",
    "address": "787 The Alameda",
    "city": "San Jose",
    "rating": 4.2,
    "reviews": 99,
    "phone": "+1 844-379-4035",
    "transit": "Caltrain/BART",
    "lat": 37.332,
    "lng": -121.9054,
    "place_id": "ChIJl7Ux917Lj4ARJ2o0ORBUDWA",
    "website": null,
    "price_1br": null
  },
  {
    "name": "808 West Apartments",
    "address": "808 West San Carlos Street",
    "city": "San Jose",
    "rating": 0,
    "reviews": 0,
    "phone": null,
    "transit": "BART/Caltrain/VTA",
    "lat": 37.322799,
    "lng": -121.905271,
    "place_id": "",
    "website": null,
    "price_1br": null
  },
  {
    "name": "88 North Jackson Ave",
    "address": "88 North Jackson Avenue",
    "city": "San Jose",
    "rating": 0,
    "reviews": 0,
    "phone": null,
    "transit": "BART",
    "lat": 37.361357,
    "lng": -121.845255,
    "place_id": "",
    "website": null,
    "price_1br": null
  },
  {
    "name": "Adriatic Apartments",
    "address": "2656 Newhall Street",
    "city": "San Jose",
    "rating": 0,
    "reviews": 0,
    "phone": null,
    "transit": "BART/Caltrain",
    "lat": 37.337376,
    "lng": -121.952772,
    "place_id": "",
    "website": null,
    "price_1br": null
  },
  {
    "name": "Alpha Epsilon Pi",
    "address": "",
    "city": "San Jose",
    "rating": 0,
    "reviews": 0,
    "phone": null,
    "transit": "BART/Caltrain/VTA",
    "lat": 37.337938,
    "lng": -121.878584,
    "place_id": "",
    "website": null,
    "price_1br": null
  },
  {
    "name": "Archer Studios",
    "address": "98 Archer Street",
    "city": "San Jose",
    "rating": 0,
    "reviews": 0,
    "phone": null,
    "transit": "BART/Caltrain",
    "lat": 37.365464,
    "lng": -121.910716,
    "place_id": "",
    "website": null,
    "price_1br": null
  },
  {
    "name": "Auburn Apartments",
    "address": "",
    "city": "San Jose",
    "rating": 0,
    "reviews": 0,
    "phone": null,
    "transit": "BART/Caltrain/VTA",
    "lat": 37.34175,
    "lng": -121.892261,
    "place_id": "",
    "website": null,
    "price_1br": null
  },
  {
    "name": "Avalon Morrison Park",
    "address": "899 Morrison Park Dr",
    "city": "San Jose",
    "rating": 4.2,
    "reviews": 241,
    "phone": "+1 408-352-6789",
    "transit": "Caltrain",
    "lat": 37.3343,
    "lng": -121.9084,
    "place_id": "ChIJy7U7W2fLj4ARyY6L2Wbm2UY",
    "website": null,
    "price_1br": null
  },
  {
    "name": "Avalon Morrison Park - Building 1",
    "address": "367 Stockton Avenue",
    "city": "San Jose",
    "rating": 0,
    "reviews": 0,
    "phone": null,
    "transit": "BART/Caltrain/VTA",
    "lat": 37.334447,
    "lng": -121.90706,
    "place_id": "",
    "website": null,
    "price_1br": null
  },
  {
    "name": "Avalon at Cahill Park",
    "address": "754 The Alameda",
    "city": "San Jose",
    "rating": 4.4,
    "reviews": 273,
    "phone": "+1 408-216-8945",
    "transit": "Caltrain/BART",
    "lat": 37.3309,
    "lng": -121.9053,
    "place_id": "ChIJ0wyO1VjLj4ARroIvJs7Lu2E",
    "website": null,
    "price_1br": null
  },
  {
    "name": "Avalon on the Alameda",
    "address": "1300 The Alameda",
    "city": "San Jose",
    "rating": 4.3,
    "reviews": 269,
    "phone": "+1 408-216-8947",
    "transit": "Caltrain",
    "lat": 37.3325,
    "lng": -121.9124,
    "place_id": "ChIJvZYYkWfLj4ARKvzEuDKxlWg",
    "website": null,
    "price_1br": null
  },
  {
    "name": "Axis",
    "address": "",
    "city": "San Jose",
    "rating": 0,
    "reviews": 0,
    "phone": null,
    "transit": "BART/Caltrain/VTA",
    "lat": 37.334761,
    "lng": -121.895728,
    "place_id": "",
    "website": null,
    "price_1br": null
  },
  {
    "name": "Barcelona Apartments",
    "address": "15 Hawthorne Way",
    "city": "San Jose",
    "rating": 0,
    "reviews": 0,
    "phone": null,
    "transit": "BART/Caltrain/VTA",
    "lat": 37.344692,
    "lng": -121.897358,
    "place_id": "",
    "website": null,
    "price_1br": null
  },
  {
    "name": "Beatrice Building",
    "address": "",
    "city": "San Jose",
    "rating": 0,
    "reviews": 0,
    "phone": null,
    "transit": "BART/Caltrain/VTA",
    "lat": 37.339848,
    "lng": -121.893593,
    "place_id": "",
    "website": null,
    "price_1br": null
  },
  {
    "name": "Belovida at Newbury Park",
    "address": "1777 Newbury Park Drive",
    "city": "San Jose",
    "rating": 0,
    "reviews": 0,
    "phone": null,
    "transit": "BART/VTA",
    "lat": 37.366586,
    "lng": -121.867305,
    "place_id": "",
    "website": null,
    "price_1br": null
  },
  {
    "name": "Blossom Valley Senior Apartments",
    "address": "339 Blossom Hill Road",
    "city": "San Jose",
    "rating": 0,
    "reviews": 0,
    "phone": null,
    "transit": "VTA",
    "lat": 37.251894,
    "lng": -121.827846,
    "place_id": "",
    "website": null,
    "price_1br": null
  },
  {
    "name": "Casa de Novo",
    "address": "2188 The Alameda",
    "city": "San Jose",
    "rating": 0,
    "reviews": 0,
    "phone": null,
    "transit": "BART/Caltrain",
    "lat": 37.344638,
    "lng": -121.931259,
    "place_id": "",
    "website": null,
    "price_1br": null
  },
  {
    "name": "Casa del Pueblo",
    "address": "200 South Market Street",
    "city": "San Jose",
    "rating": 0,
    "reviews": 0,
    "phone": null,
    "transit": "BART/Caltrain/VTA",
    "lat": 37.332001,
    "lng": -121.888418,
    "place_id": "",
    "website": null,
    "price_1br": null
  },
  {
    "name": "Centerra",
    "address": "77 North Almaden Avenue",
    "city": "San Jose",
    "rating": 0,
    "reviews": 0,
    "phone": null,
    "transit": "BART/Caltrain/VTA",
    "lat": 37.335915,
    "lng": -121.895321,
    "place_id": "",
    "website": null,
    "price_1br": null
  },
  {
    "name": "City Heights",
    "address": "175 West Saint James Street",
    "city": "San Jose",
    "rating": 0,
    "reviews": 0,
    "phone": null,
    "transit": "BART/Caltrain/VTA",
    "lat": 37.338081,
    "lng": -121.895648,
    "place_id": "",
    "website": "http://sanjosecityheights.com/",
    "price_1br": null
  },
  {
    "name": "Colonnade",
    "address": "201 South 4th Street",
    "city": "San Jose",
    "rating": 0,
    "reviews": 0,
    "phone": null,
    "transit": "BART/Caltrain/VTA",
    "lat": 37.333194,
    "lng": -121.884892,
    "place_id": "",
    "website": null,
    "price_1br": null
  },
  {
    "name": "Commercial Building",
    "address": "",
    "city": "San Jose",
    "rating": 0,
    "reviews": 0,
    "phone": null,
    "transit": "BART/Caltrain/VTA",
    "lat": 37.336692,
    "lng": -121.890704,
    "place_id": "",
    "website": null,
    "price_1br": null
  },
  {
    "name": "Court 4",
    "address": "190 Ryland Street",
    "city": "San Jose",
    "rating": 0,
    "reviews": 0,
    "phone": null,
    "transit": "BART/Caltrain/VTA",
    "lat": 37.340793,
    "lng": -121.898114,
    "place_id": "",
    "website": null,
    "price_1br": null
  },
  {
    "name": "Curtner Studios",
    "address": "701 Curtner Avenue",
    "city": "San Jose",
    "rating": 0,
    "reviews": 0,
    "phone": null,
    "transit": "VTA",
    "lat": 37.293202,
    "lng": -121.875383,
    "place_id": "",
    "website": null,
    "price_1br": null
  },
  {
    "name": "DeLaVe Apartments",
    "address": "",
    "city": "San Jose",
    "rating": 0,
    "reviews": 0,
    "phone": null,
    "transit": "BART/Caltrain/VTA",
    "lat": 37.331527,
    "lng": -121.873219,
    "place_id": "",
    "website": null,
    "price_1br": null
  },
  {
    "name": "Delmas Park",
    "address": "350 Barack Obama Boulevard",
    "city": "San Jose",
    "rating": 0,
    "reviews": 0,
    "phone": null,
    "transit": "BART/Caltrain/VTA",
    "lat": 37.324537,
    "lng": -121.89972,
    "place_id": "",
    "website": null,
    "price_1br": null
  },
  {
    "name": "Diridon West",
    "address": "717 W Julian St",
    "city": "San Jose",
    "rating": 4.6,
    "reviews": 402,
    "phone": "+1 669-222-8085",
    "transit": "Caltrain/BART",
    "lat": 37.3338,
    "lng": -121.9065,
    "place_id": "ChIJlSjB6HrLj4ARvhQBf3J17-E",
    "website": null,
    "price_1br": null
  },
  {
    "name": "Domain 3",
    "address": "",
    "city": "San Jose",
    "rating": 0,
    "reviews": 0,
    "phone": null,
    "transit": "VTA",
    "lat": 37.414609,
    "lng": -121.955198,
    "place_id": "",
    "website": null,
    "price_1br": null
  },
  {
    "name": "Donner Lofts",
    "address": "",
    "city": "San Jose",
    "rating": 0,
    "reviews": 0,
    "phone": null,
    "transit": "BART/Caltrain/VTA",
    "lat": 37.339075,
    "lng": -121.888038,
    "place_id": "",
    "website": null,
    "price_1br": null
  },
  {
    "name": "El Dorado Apartments",
    "address": "279 East San Fernando Street",
    "city": "San Jose",
    "rating": 0,
    "reviews": 0,
    "phone": null,
    "transit": "BART/Caltrain/VTA",
    "lat": 37.337356,
    "lng": -121.883408,
    "place_id": "",
    "website": null,
    "price_1br": null
  },
  {
    "name": "El Paseo Court",
    "address": "",
    "city": "San Jose",
    "rating": 0,
    "reviews": 0,
    "phone": null,
    "transit": "BART/Caltrain/VTA",
    "lat": 37.335529,
    "lng": -121.889637,
    "place_id": "",
    "website": null,
    "price_1br": null
  },
  {
    "name": "Exhibit",
    "address": "535 North 7th Street",
    "city": "San Jose",
    "rating": 0,
    "reviews": 0,
    "phone": null,
    "transit": "BART/Caltrain/VTA",
    "lat": 37.348179,
    "lng": -121.891252,
    "place_id": "",
    "website": "https://www.exhibitjtown.com/",
    "price_1br": null
  },
  {
    "name": "Fama Apartments",
    "address": "121 North 8th Street",
    "city": "San Jose",
    "rating": 0,
    "reviews": 0,
    "phone": null,
    "transit": "BART/Caltrain/VTA",
    "lat": 37.341316,
    "lng": -121.884662,
    "place_id": "",
    "website": null,
    "price_1br": null
  },
  {
    "name": "Family Supportive Housing",
    "address": "692 North King Road",
    "city": "San Jose",
    "rating": 0,
    "reviews": 0,
    "phone": null,
    "transit": "BART/VTA",
    "lat": 37.366223,
    "lng": -121.868349,
    "place_id": "",
    "website": null,
    "price_1br": null
  },
  {
    "name": "Foundry Commons",
    "address": "868 S 5th St",
    "city": "San Jose",
    "rating": 4.1,
    "reviews": 195,
    "phone": "+1 833-828-2035",
    "transit": "VTA",
    "lat": 37.3256,
    "lng": -121.8768,
    "place_id": "ChIJB5D34crMj4ARMOMSC3zJgB0",
    "website": null,
    "price_1br": null
  },
  {
    "name": "Fruitdale Station Apartments",
    "address": "1590 Southwest Expressway",
    "city": "San Jose",
    "rating": 0,
    "reviews": 0,
    "phone": null,
    "transit": "BART/Caltrain/VTA",
    "lat": 37.30932,
    "lng": -121.918402,
    "place_id": "",
    "website": null,
    "price_1br": null
  },
  {
    "name": "Fuji Towers",
    "address": "690 North 5th Street",
    "city": "San Jose",
    "rating": 0,
    "reviews": 0,
    "phone": null,
    "transit": "BART/Caltrain/VTA",
    "lat": 37.351171,
    "lng": -121.895296,
    "place_id": "",
    "website": null,
    "price_1br": null
  },
  {
    "name": "Gloria Apartments",
    "address": "580 South 11th Street",
    "city": "San Jose",
    "rating": 0,
    "reviews": 0,
    "phone": null,
    "transit": "BART/Caltrain/VTA",
    "lat": 37.332615,
    "lng": -121.873243,
    "place_id": "",
    "website": null,
    "price_1br": null
  },
  {
    "name": "Gran Valley Apartments",
    "address": "",
    "city": "San Jose",
    "rating": 0,
    "reviews": 0,
    "phone": null,
    "transit": "BART/Caltrain/VTA",
    "lat": 37.345843,
    "lng": -121.895273,
    "place_id": "",
    "website": null,
    "price_1br": null
  },
  {
    "name": "Hanover Cannery Park",
    "address": "415 East Taylor Street",
    "city": "San Jose",
    "rating": 0,
    "reviews": 0,
    "phone": null,
    "transit": "BART/Caltrain/VTA",
    "lat": 37.354375,
    "lng": -121.891976,
    "place_id": "",
    "website": null,
    "price_1br": null
  },
  {
    "name": "Iamesi Village",
    "address": "201 Bassett Street",
    "city": "San Jose",
    "rating": 0,
    "reviews": 0,
    "phone": null,
    "transit": "BART/Caltrain/VTA",
    "lat": 37.340035,
    "lng": -121.898507,
    "place_id": "",
    "website": "https://www.firstcommunityhousing.org/property-iamesivillage",
    "price_1br": null
  },
  {
    "name": "Japantown Senior Apartments",
    "address": "685 North 6th Street",
    "city": "San Jose",
    "rating": 0,
    "reviews": 0,
    "phone": "+1 408-573-7924",
    "transit": "BART/Caltrain/VTA",
    "lat": 37.350873,
    "lng": -121.894707,
    "place_id": "",
    "website": "https://firstcommunityhousing.org/japan-town-senior-apartments",
    "price_1br": null
  },
  {
    "name": "Jeanne d\u2019Arc Manor",
    "address": "85 South 5th Street",
    "city": "San Jose",
    "rating": 0,
    "reviews": 0,
    "phone": null,
    "transit": "BART/Caltrain/VTA",
    "lat": 37.3367,
    "lng": -121.885684,
    "place_id": "",
    "website": null,
    "price_1br": null
  },
  {
    "name": "Juniper Hall",
    "address": "",
    "city": "San Jose",
    "rating": 0,
    "reviews": 0,
    "phone": null,
    "transit": "BART/Caltrain/VTA",
    "lat": 37.332507,
    "lng": -121.875375,
    "place_id": "",
    "website": null,
    "price_1br": null
  },
  {
    "name": "Kennedy Hall",
    "address": "555 South 10th Street",
    "city": "San Jose",
    "rating": 0,
    "reviews": 0,
    "phone": null,
    "transit": "BART/Caltrain/VTA",
    "lat": 37.33217,
    "lng": -121.875132,
    "place_id": "",
    "website": null,
    "price_1br": null
  },
  {
    "name": "Lafayette Plaza Apartments",
    "address": "",
    "city": "San Jose",
    "rating": 0,
    "reviews": 0,
    "phone": null,
    "transit": "BART/Caltrain",
    "lat": 37.359894,
    "lng": -121.948461,
    "place_id": "",
    "website": null,
    "price_1br": null
  },
  {
    "name": "Latitude 37",
    "address": "",
    "city": "San Jose",
    "rating": 0,
    "reviews": 0,
    "phone": null,
    "transit": "VTA",
    "lat": 37.290321,
    "lng": -121.876034,
    "place_id": "",
    "website": null,
    "price_1br": null
  },
  {
    "name": "Legato\u2019s Apartments",
    "address": "140 East Santa Clara Street",
    "city": "San Jose",
    "rating": 0,
    "reviews": 0,
    "phone": null,
    "transit": "BART/Caltrain/VTA",
    "lat": 37.337283,
    "lng": -121.887616,
    "place_id": "",
    "website": null,
    "price_1br": null
  },
  {
    "name": "Lenzen Square",
    "address": "790 Lenzen Ave",
    "city": "San Jose",
    "rating": 4.6,
    "reviews": 5,
    "phone": "+1 408-286-9595",
    "transit": "Caltrain",
    "lat": 37.3356,
    "lng": -121.9099,
    "place_id": "ChIJXYz9-GbLj4ARH8-EY13ZW7w",
    "website": null,
    "price_1br": null
  },
  {
    "name": "Mabuhay Court",
    "address": "270 East Empire Street",
    "city": "San Jose",
    "rating": 0,
    "reviews": 0,
    "phone": null,
    "transit": "BART/Caltrain/VTA",
    "lat": 37.347195,
    "lng": -121.89079,
    "place_id": "",
    "website": "https://bridgehousing.com/properties/santa-clara-san-jose-mabuhay/",
    "price_1br": null
  },
  {
    "name": "Marquis",
    "address": "",
    "city": "San Jose",
    "rating": 0,
    "reviews": 0,
    "phone": null,
    "transit": "BART/VTA",
    "lat": 37.356087,
    "lng": -121.893277,
    "place_id": "",
    "website": "http://www.liveatmarquis.com/",
    "price_1br": null
  },
  {
    "name": "Masson Apartments",
    "address": "",
    "city": "San Jose",
    "rating": 0,
    "reviews": 0,
    "phone": null,
    "transit": "BART/Caltrain/VTA",
    "lat": 37.33512,
    "lng": -121.893503,
    "place_id": "",
    "website": null,
    "price_1br": null
  },
  {
    "name": "Meridian at Midtown Apartments",
    "address": "1432 West San Carlos Street",
    "city": "San Jose",
    "rating": 0,
    "reviews": 0,
    "phone": null,
    "transit": "BART/Caltrain/VTA",
    "lat": 37.322956,
    "lng": -121.914639,
    "place_id": "",
    "website": "http://www.meridianatmidtown.com/",
    "price_1br": null
  },
  {
    "name": "Merrill Gardens at Willow Glen",
    "address": "1420 Curci Drive",
    "city": "San Jose",
    "rating": 0,
    "reviews": 0,
    "phone": null,
    "transit": "BART/Caltrain/VTA",
    "lat": 37.307572,
    "lng": -121.914327,
    "place_id": "",
    "website": null,
    "price_1br": null
  },
  {
    "name": "Met North",
    "address": "2122 Monterey Road",
    "city": "San Jose",
    "rating": 0,
    "reviews": 0,
    "phone": null,
    "transit": "VTA",
    "lat": 37.305899,
    "lng": -121.862866,
    "place_id": "",
    "website": null,
    "price_1br": null
  },
  {
    "name": "Metropolitan Court Apartments",
    "address": "390 North 2nd Street",
    "city": "San Jose",
    "rating": 0,
    "reviews": 0,
    "phone": null,
    "transit": "BART/Caltrain/VTA",
    "lat": 37.342884,
    "lng": -121.89375,
    "place_id": "",
    "website": null,
    "price_1br": null
  },
  {
    "name": "Mio",
    "address": "688 North 7th Street",
    "city": "San Jose",
    "rating": 0,
    "reviews": 0,
    "phone": null,
    "transit": "BART/Caltrain/VTA",
    "lat": 37.351753,
    "lng": -121.893176,
    "place_id": "",
    "website": "https://essexapartmenthomes.com/apartments/san-jose/mio",
    "price_1br": null
  },
  {
    "name": "Miro East Tower",
    "address": "181 East Santa Clara Street",
    "city": "San Jose",
    "rating": 0,
    "reviews": 0,
    "phone": null,
    "transit": "BART/Caltrain/VTA",
    "lat": 37.338319,
    "lng": -121.88687,
    "place_id": "",
    "website": null,
    "price_1br": null
  },
  {
    "name": "Miro West Tower",
    "address": "181 East Santa Clara Street",
    "city": "San Jose",
    "rating": 0,
    "reviews": 0,
    "phone": null,
    "transit": "BART/Caltrain/VTA",
    "lat": 37.338277,
    "lng": -121.887463,
    "place_id": "",
    "website": null,
    "price_1br": null
  },
  {
    "name": "Mission Court Apartments",
    "address": "460 North 1st Street",
    "city": "San Jose",
    "rating": 0,
    "reviews": 0,
    "phone": null,
    "transit": "BART/Caltrain/VTA",
    "lat": 37.344021,
    "lng": -121.896041,
    "place_id": "",
    "website": null,
    "price_1br": null
  },
  {
    "name": "Mission Terrace",
    "address": "1883 Agnew Road",
    "city": "San Jose",
    "rating": 0,
    "reviews": 0,
    "phone": null,
    "transit": "VTA",
    "lat": 37.395671,
    "lng": -121.958238,
    "place_id": "",
    "website": null,
    "price_1br": null
  },
  {
    "name": "Modera San Pedro Square",
    "address": "28 N Almaden Ave",
    "city": "San Jose",
    "rating": 4.2,
    "reviews": 113,
    "phone": "+1 650-963-1330",
    "transit": "Caltrain",
    "lat": 37.3352,
    "lng": -121.8941,
    "place_id": "ChIJG0MA9pTNj4ARgbp_yCuK7TU",
    "website": null,
    "price_1br": null
  },
  {
    "name": "Modera The Alameda",
    "address": "787 The Alameda",
    "city": "San Jose",
    "rating": 0,
    "reviews": 0,
    "phone": null,
    "transit": "BART/Caltrain/VTA",
    "lat": 37.332261,
    "lng": -121.905654,
    "place_id": "",
    "website": "https://www.moderathealameda.com/",
    "price_1br": null
  },
  {
    "name": "Monte Vista",
    "address": "809 Auzerais Avenue",
    "city": "San Jose",
    "rating": 0,
    "reviews": 0,
    "phone": null,
    "transit": "BART/Caltrain/VTA",
    "lat": 37.321867,
    "lng": -121.905034,
    "place_id": "",
    "website": null,
    "price_1br": null
  },
  {
    "name": "Museum Park",
    "address": "465 W San Carlos St",
    "city": "San Jose",
    "rating": 4.0,
    "reviews": 91,
    "phone": "+1 408-975-9450",
    "transit": "Caltrain",
    "lat": 37.3266,
    "lng": -121.8975,
    "place_id": "ChIJZanTvajMj4AR8K3RCuQBViM",
    "website": null,
    "price_1br": null
  },
  {
    "name": "N\u1eef Tu La San",
    "address": "3867 Silver Creek Road",
    "city": "San Jose",
    "rating": 0,
    "reviews": 0,
    "phone": null,
    "transit": "VTA",
    "lat": 37.300107,
    "lng": -121.804239,
    "place_id": "",
    "website": null,
    "price_1br": null
  },
  {
    "name": "One South Market",
    "address": "1 South Market Street",
    "city": "San Jose",
    "rating": 0,
    "reviews": 0,
    "phone": "+1-866-360-0061",
    "transit": "BART/Caltrain/VTA",
    "lat": 37.334885,
    "lng": -121.892217,
    "place_id": "",
    "website": "https://essexapartmenthomes.com/california/san-francisco-bay-area/san-jose/one-south-market",
    "price_1br": null
  },
  {
    "name": "Orlo Apartments",
    "address": "",
    "city": "San Jose",
    "rating": 0,
    "reviews": 0,
    "phone": null,
    "transit": "BART/Caltrain",
    "lat": 37.356142,
    "lng": -121.934117,
    "place_id": "",
    "website": null,
    "price_1br": null
  },
  {
    "name": "Park Plaza",
    "address": "255 North 3rd Street",
    "city": "San Jose",
    "rating": 0,
    "reviews": 0,
    "phone": null,
    "transit": "BART/Caltrain/VTA",
    "lat": 37.340858,
    "lng": -121.89164,
    "place_id": "",
    "website": null,
    "price_1br": null
  },
  {
    "name": "Park Townsend",
    "address": "",
    "city": "San Jose",
    "rating": 0,
    "reviews": 0,
    "phone": null,
    "transit": "BART/Caltrain/VTA",
    "lat": 37.339946,
    "lng": -121.894386,
    "place_id": "",
    "website": null,
    "price_1br": null
  },
  {
    "name": "Paseo Plaza",
    "address": "",
    "city": "San Jose",
    "rating": 0,
    "reviews": 0,
    "phone": null,
    "transit": "BART/Caltrain/VTA",
    "lat": 37.334098,
    "lng": -121.885426,
    "place_id": "",
    "website": null,
    "price_1br": null
  },
  {
    "name": "Paseo Villas",
    "address": "",
    "city": "San Jose",
    "rating": 0,
    "reviews": 0,
    "phone": null,
    "transit": "BART/Caltrain/VTA",
    "lat": 37.335134,
    "lng": -121.886247,
    "place_id": "",
    "website": null,
    "price_1br": null
  },
  {
    "name": "Peachtree Apts",
    "address": "1962 Bellomy Street",
    "city": "San Jose",
    "rating": 0,
    "reviews": 0,
    "phone": null,
    "transit": "BART/Caltrain",
    "lat": 37.340061,
    "lng": -121.954242,
    "place_id": "",
    "website": null,
    "price_1br": null
  },
  {
    "name": "Play Area",
    "address": "",
    "city": "San Jose",
    "rating": 0,
    "reviews": 0,
    "phone": null,
    "transit": "VTA",
    "lat": 37.395992,
    "lng": -121.958122,
    "place_id": "",
    "website": null,
    "price_1br": null
  },
  {
    "name": "Plaza Mari Apartments",
    "address": "",
    "city": "San Jose",
    "rating": 0,
    "reviews": 0,
    "phone": null,
    "transit": "BART/Caltrain/VTA",
    "lat": 37.328575,
    "lng": -121.881654,
    "place_id": "",
    "website": null,
    "price_1br": null
  },
  {
    "name": "Presidio El Camino",
    "address": "",
    "city": "San Jose",
    "rating": 0,
    "reviews": 0,
    "phone": null,
    "transit": "BART/Caltrain",
    "lat": 37.352336,
    "lng": -121.9524,
    "place_id": "",
    "website": "http://www.presidioelcamino.com/",
    "price_1br": null
  },
  {
    "name": "RR Apartments",
    "address": "556 South 11th Street",
    "city": "San Jose",
    "rating": 0,
    "reviews": 0,
    "phone": null,
    "transit": "BART/Caltrain/VTA",
    "lat": 37.332912,
    "lng": -121.873449,
    "place_id": "",
    "website": null,
    "price_1br": null
  },
  {
    "name": "Redwood Senior Apartments",
    "address": "814 Saint Elizabeth Drive",
    "city": "San Jose",
    "rating": 0,
    "reviews": 0,
    "phone": null,
    "transit": "BART/Caltrain/VTA",
    "lat": 37.309855,
    "lng": -121.914937,
    "place_id": "",
    "website": "https://www.redwoodseniors.com/",
    "price_1br": null
  },
  {
    "name": "Renascent Place",
    "address": "2450 Senter Road",
    "city": "San Jose",
    "rating": 0,
    "reviews": 0,
    "phone": null,
    "transit": "VTA",
    "lat": 37.306981,
    "lng": -121.845753,
    "place_id": "",
    "website": null,
    "price_1br": null
  },
  {
    "name": "Residential Lounge/Fitness Center",
    "address": "",
    "city": "San Jose",
    "rating": 0,
    "reviews": 0,
    "phone": null,
    "transit": "VTA",
    "lat": 37.41487,
    "lng": -121.954663,
    "place_id": "",
    "website": null,
    "price_1br": null
  },
  {
    "name": "Saint Anna Apartments",
    "address": "",
    "city": "San Jose",
    "rating": 0,
    "reviews": 0,
    "phone": null,
    "transit": "BART/Caltrain/VTA",
    "lat": 37.326989,
    "lng": -121.882625,
    "place_id": "",
    "website": null,
    "price_1br": null
  },
  {
    "name": "Security Building",
    "address": "84 South 1st Street",
    "city": "San Jose",
    "rating": 0,
    "reviews": 0,
    "phone": null,
    "transit": "BART/Caltrain/VTA",
    "lat": 37.334803,
    "lng": -121.889139,
    "place_id": "",
    "website": null,
    "price_1br": null
  },
  {
    "name": "Seneca Family of Agencies",
    "address": "485 North 1st Street",
    "city": "San Jose",
    "rating": 0,
    "reviews": 0,
    "phone": null,
    "transit": "BART/Caltrain/VTA",
    "lat": 37.344305,
    "lng": -121.897144,
    "place_id": "",
    "website": null,
    "price_1br": null
  },
  {
    "name": "Shanti Apartments",
    "address": "250 North 3rd Street",
    "city": "San Jose",
    "rating": 0,
    "reviews": 0,
    "phone": null,
    "transit": "BART/Caltrain/VTA",
    "lat": 37.340908,
    "lng": -121.890745,
    "place_id": "",
    "website": null,
    "price_1br": null
  },
  {
    "name": "Shiraz Senior",
    "address": "1295 McLaughlin Avenue",
    "city": "San Jose",
    "rating": 0,
    "reviews": 0,
    "phone": null,
    "transit": "VTA",
    "lat": 37.329785,
    "lng": -121.852994,
    "place_id": "",
    "website": null,
    "price_1br": null
  },
  {
    "name": "Siena Court",
    "address": "516 Martha Street",
    "city": "San Jose",
    "rating": 0,
    "reviews": 0,
    "phone": null,
    "transit": "BART/Caltrain/VTA",
    "lat": 37.32753,
    "lng": -121.86907,
    "place_id": "",
    "website": null,
    "price_1br": null
  },
  {
    "name": "Silver Apartment Homes",
    "address": "333 Sunol Street",
    "city": "San Jose",
    "rating": 0,
    "reviews": 0,
    "phone": null,
    "transit": "BART/Caltrain/VTA",
    "lat": 37.321608,
    "lng": -121.906628,
    "place_id": "",
    "website": null,
    "price_1br": null
  },
  {
    "name": "Solaire Apartments",
    "address": "427 Auzerais Avenue",
    "city": "San Jose",
    "rating": 0,
    "reviews": 0,
    "phone": null,
    "transit": "BART/Caltrain/VTA",
    "lat": 37.32604,
    "lng": -121.895266,
    "place_id": "",
    "website": null,
    "price_1br": null
  },
  {
    "name": "Sonnet Hill",
    "address": "429 Meridian Avenue",
    "city": "San Jose",
    "rating": 0,
    "reviews": 0,
    "phone": null,
    "transit": "BART/Caltrain/VTA",
    "lat": 37.31987,
    "lng": -121.914251,
    "place_id": "",
    "website": "https://sonnethill.com/",
    "price_1br": null
  },
  {
    "name": "Sparq",
    "address": "5 East Reed Street",
    "city": "San Jose",
    "rating": 0,
    "reviews": 0,
    "phone": null,
    "transit": "BART/Caltrain/VTA",
    "lat": 37.327573,
    "lng": -121.883732,
    "place_id": "",
    "website": null,
    "price_1br": null
  },
  {
    "name": "Sparta505",
    "address": "505 East Santa Clara Street",
    "city": "San Jose",
    "rating": 0,
    "reviews": 0,
    "phone": null,
    "transit": "BART/Caltrain/VTA",
    "lat": 37.341715,
    "lng": -121.879879,
    "place_id": "",
    "website": "https://sparta505.com/",
    "price_1br": null
  },
  {
    "name": "Spartan Manor",
    "address": "",
    "city": "San Jose",
    "rating": 0,
    "reviews": 0,
    "phone": null,
    "transit": "BART/Caltrain/VTA",
    "lat": 37.332799,
    "lng": -121.875645,
    "place_id": "",
    "website": null,
    "price_1br": null
  },
  {
    "name": "State House Apartments",
    "address": "",
    "city": "San Jose",
    "rating": 0,
    "reviews": 0,
    "phone": null,
    "transit": "BART/Caltrain/VTA",
    "lat": 37.333455,
    "lng": -121.873834,
    "place_id": "",
    "website": null,
    "price_1br": null
  },
  {
    "name": "Summer Breeze Apartments",
    "address": "200 Lewis Road",
    "city": "San Jose",
    "rating": 0,
    "reviews": 0,
    "phone": null,
    "transit": "VTA",
    "lat": 37.292193,
    "lng": -121.844299,
    "place_id": "",
    "website": null,
    "price_1br": null
  },
  {
    "name": "Sunset Square",
    "address": "2080 Alum Rock Avenue",
    "city": "San Jose",
    "rating": 0,
    "reviews": 0,
    "phone": null,
    "transit": "BART",
    "lat": 37.356103,
    "lng": -121.847331,
    "place_id": "",
    "website": null,
    "price_1br": null
  },
  {
    "name": "The 88",
    "address": "",
    "city": "San Jose",
    "rating": 0,
    "reviews": 0,
    "phone": null,
    "transit": "BART/Caltrain/VTA",
    "lat": 37.334746,
    "lng": -121.887385,
    "place_id": "",
    "website": "http://www.88sanjose.com/",
    "price_1br": null
  },
  {
    "name": "The Carlson Building",
    "address": "52 South 1st Street",
    "city": "San Jose",
    "rating": 0,
    "reviews": 0,
    "phone": null,
    "transit": "BART/Caltrain/VTA",
    "lat": 37.335361,
    "lng": -121.889537,
    "place_id": "",
    "website": null,
    "price_1br": null
  },
  {
    "name": "The Enclave Building 1",
    "address": "4301 Renaissance Drive",
    "city": "San Jose",
    "rating": 0,
    "reviews": 0,
    "phone": null,
    "transit": "VTA",
    "lat": 37.414424,
    "lng": -121.961538,
    "place_id": "",
    "website": null,
    "price_1br": null
  },
  {
    "name": "The Enclave Building 2",
    "address": "4307 Renaissance Drive",
    "city": "San Jose",
    "rating": 0,
    "reviews": 0,
    "phone": null,
    "transit": "VTA",
    "lat": 37.415227,
    "lng": -121.961541,
    "place_id": "",
    "website": null,
    "price_1br": null
  },
  {
    "name": "The Enclave Building 3",
    "address": "4319 Renaissance Drive",
    "city": "San Jose",
    "rating": 0,
    "reviews": 0,
    "phone": null,
    "transit": "VTA",
    "lat": 37.415834,
    "lng": -121.962055,
    "place_id": "",
    "website": null,
    "price_1br": null
  },
  {
    "name": "The Enclave Building 4",
    "address": "4325 Renaissance Drive",
    "city": "San Jose",
    "rating": 0,
    "reviews": 0,
    "phone": null,
    "transit": "VTA",
    "lat": 37.415172,
    "lng": -121.962595,
    "place_id": "",
    "website": null,
    "price_1br": null
  },
  {
    "name": "The Enclave Building 5",
    "address": "4331 Renaissance Drive",
    "city": "San Jose",
    "rating": 0,
    "reviews": 0,
    "phone": null,
    "transit": "VTA",
    "lat": 37.414678,
    "lng": -121.962576,
    "place_id": "",
    "website": null,
    "price_1br": null
  },
  {
    "name": "The Enclave Building 6",
    "address": "4337 Renaissance Drive",
    "city": "San Jose",
    "rating": 0,
    "reviews": 0,
    "phone": null,
    "transit": "VTA",
    "lat": 37.414103,
    "lng": -121.962629,
    "place_id": "",
    "website": null,
    "price_1br": null
  },
  {
    "name": "The Enclave Building 7",
    "address": "4349 Renaissance Drive",
    "city": "San Jose",
    "rating": 0,
    "reviews": 0,
    "phone": null,
    "transit": "VTA",
    "lat": 37.412913,
    "lng": -121.962094,
    "place_id": "",
    "website": null,
    "price_1br": null
  },
  {
    "name": "The Enclave Building 8",
    "address": "4355 Renaissance Drive",
    "city": "San Jose",
    "rating": 0,
    "reviews": 0,
    "phone": null,
    "transit": "VTA",
    "lat": 37.413201,
    "lng": -121.961466,
    "place_id": "",
    "website": null,
    "price_1br": null
  },